Unnamed: 0,名称,类别,类型,申报单位,保护单位,Longitude,Latitude,Converted_Longitude,Converted_Latitude
0,苗族古歌,民间文学,新增项目,贵州省台江县,台江县非物质文化遗产保护中心,119.3205282,26.05852815,119.3091714,26.05565806
1,苗族古歌,民间文学,新增项目,贵州省黄平县,黄平县非物质文化遗产保护中心,107.9235478,26.91128864,107.9129685,26.90904571
2,苗族古歌,民间文学,扩展项目,湖南省花垣县,花垣县非物质文化遗产保护中心,109.4885618,28.57790993,109.4772347,28.57536818
3,苗族古歌（簪汪传）,民间文学,扩展项目,贵州省贵阳市清镇市,清镇市文化馆,106.4807829,26.55843119,106.4704946,26.55591849
4,布洛陀,民间文学,新增项目,广西壮族自治区田阳县,田阳县文化馆,116.1073529,39.94839892,116.0944206,39.94135362
5,遮帕麻和遮咪麻,民间文学,新增项目,云南省梁河县,梁河县文化馆,98.30476981,24.81084186,98.29800519,24.80764753
6,牡帕密帕,民间文学,新增项目,云南省思茅市,澜沧拉祜族自治县文化馆,99.93858828,22.56183192,99.93124921,22.55892896
7,刻道,民间文学,新增项目,贵州省施秉县,施秉县非物质文化遗产保护中心,108.1304398,27.03982205,108.1196309,27.03675905
8,白蛇传传说,民间文学,新增项目,江苏省镇江市,镇江市非物质文化遗产保护中心,119.4343136,32.22025669,119.422375,32.21609897
9,白蛇传传说,民间文学,新增项目,浙江省杭州市,杭州市文化馆（杭州市非物质文化遗产保护中心）,120.177442,30.25790403,120.1662039,30.25458171
10,梁祝传说,民间文学,新增项目,江苏省宜兴市,宜兴市华夏梁祝文化研究会,119.831606,31.34295662,119.820177,31.33938794
11,梁祝传说,民间文学,新增项目,浙江省宁波市,宁波梁祝文化园管理有限公司,121.6283105,29.861032,121.6176411,29.85802172
12,梁祝传说,民间文学,新增项目,浙江省杭州市,杭州市文化馆（杭州市非物质文化遗产保护中心）,120.177442,30.25790403,120.1662039,30.25458171
13,梁祝传说,民间文学,新增项目,浙江省上虞市,绍兴市上虞区文化馆（区非物质遗产保护中心）,120.8625858,30.03792992,120.8520269,30.03428193
14,梁祝传说,民间文学,新增项目,山东省济宁市,济宁市梁祝文化研究会,116.5936123,35.42017739,116.5817094,35.41494756
15,梁祝传说,民间文学,新增项目,河南省汝南县,汝南县文化馆,114.3670596,33.00618844,114.3549089,33.00157417
16,孟姜女传说,民间文学,新增项目,山东省淄博市,淄博市淄川区公共文化服务中心（加挂淄川区文化馆、淄川区美术馆牌子）,117.9891181,36.6440964,117.9767881,36.63774508
17,孟姜女传说,民间文学,扩展项目,河北省秦皇岛市,秦皇岛市山海关区文化馆,119.7688638,39.99253137,119.7565713,39.98487277
18,孟姜女传说,民间文学,扩展项目,湖南省津市市,津市市文化馆（津市市美术馆）,111.8859547,29.63840913,111.8739103,29.63536177
19,孟姜女传说,民间文学,扩展项目,山东省莒县,莒县文化馆,118.8471781,35.57437754,118.8351721,35.56879389
20,孟姜女传说,民间文学,扩展项目,山东省莱芜市莱城区,济南市文化馆（济南市非物质文化遗产保护中心、济南市艺术创作研究院）,116.914948,36.6788429,116.9029089,36.67273813
21,董永传说,民间文学,新增项目,山西省万荣县,万荣县文化馆,110.8445761,35.4211088,110.8324762,35.41578453
22,董永传说,民间文学,新增项目,江苏省东台市,东台市文化馆,120.3265371,32.87271631,120.3152578,32.86869206
23,董永传说,民间文学,新增项目,河南省武陟县,武陟县董永文化服务中心,113.4083958,35.10583845,113.3954211,35.09994901
24,董永传说,民间文学,新增项目,湖北省孝感市,孝感市群众艺术馆（孝感市非物质文化遗产保护中心）,113.926305,30.93366497,113.914294,30.93031313
25,董永传说,民间文学,扩展项目,江苏省金坛市,常州市金坛区文化馆,119.590209,31.74842099,119.578697,31.74491504
26,董永传说,民间文学,扩展项目,山东省博兴县,博兴县文化馆,118.1360551,37.14509132,118.1233526,37.13861843
27,董永传说,民间文学,扩展项目,江苏省丹阳市,丹阳市文化馆,119.5910028,31.99547617,119.5794766,31.9920171
28,西施传说,民间文学,新增项目,浙江省诸暨市,诸暨市博物馆,120.2534083,29.71493465,120.2425683,29.71108518
29,济公传说,民间文学,新增项目,浙江省天台县,台州市天台山文化研究会,121.0405244,29.15075652,121.0296417,29.14769886
30,满族说部,民间文学,新增项目,吉林省,吉林省艺术研究院（吉林省文化行业特有工种职业技能鉴定站、吉林省东北二人转博物馆、吉林省非物质文化遗产保护中心）,125.3004573,43.88252762,125.2876288,43.87388575
31,满族说部（孙吴县满语故事）,民间文学,扩展项目,黑龙江省黑河市孙吴县,孙吴县文化馆,127.3423877,49.43145061,127.3286559,49.42292731
32,河西宝卷,民间文学,新增项目,甘肃省武威市凉州区,凉州区文化馆,102.6403385,37.94054393,102.6320951,37.93432195
33,河西宝卷,民间文学,新增项目,甘肃省酒泉市肃州区,肃州区文化馆,98.51756797,39.74749356,98.51058119,39.74044963
34,宝卷（靖江宝卷）,民间文学,扩展项目,江苏省靖江市,靖江市文化馆,120.2805725,32.01960004,120.2694531,32.015674
35,宝卷（河西宝卷）,民间文学,扩展项目,甘肃省张掖市,张掖市文化馆（张掖市非物质文化遗产传承保护中心）,101.0985281,38.7865592,101.0897776,38.78020629
36,宝卷（吴地宝卷）,民间文学,扩展项目,江苏省苏州市,苏州市非物质文化遗产保护管理办公室（苏州市文化研究中心）,120.6357754,31.30887532,120.6251072,31.3050316
37,宝卷（岷县宝卷）,民间文学,扩展项目,甘肃省定西市岷县,岷县文化馆,104.0517919,34.44232448,104.0427515,34.43733857
38,耿村民间故事,民间文学,新增项目,河北省藁城市,石家庄市藁城区文化馆,114.8545128,38.02225677,114.8422989,38.01540301
39,伍家沟民间故事,民间文学,新增项目,湖北省丹江口市,丹江口市文化馆,111.0913652,32.51453713,111.0790133,32.51062727
40,下堡坪民间故事,民间文学,新增项目,湖北省宜昌市夷陵区,宜昌市夷陵区文化馆,111.3346235,30.78555001,111.3223368,30.7819069
41,走马镇民间故事,民间文学,新增项目,重庆市九龙坡区,重庆市九龙坡区文化馆,106.5175587,29.50792772,106.507187,29.50496776
42,古渔雁民间故事,民间文学,新增项目,辽宁省大洼县,盘锦市大洼区文化体育旅游发展促进中心（大洼区总工会文体活动管理中心）,122.0753251,41.01202571,122.0633756,41.00401524
43,喀左东蒙民间故事,民间文学,新增项目,辽宁省喀喇沁左翼蒙古族自治县,喀喇沁左翼蒙古族自治县公共文化和广播电视工作服务中心,119.7474141,41.13368912,119.7349385,41.12562796
44,谭振山民间故事,民间文学,新增项目,辽宁省新民市,新民市文化馆（新民市考古和文物保护中心）,122.8357031,42.0008451,122.8237179,41.99303019
45,河间歌诗,民间文学,新增项目,河北省河间市,河间市文化馆,116.0903577,38.44298808,116.0776212,38.43637396
46,吴歌,民间文学,新增项目,江苏省苏州市,苏州市非物质文化遗产保护管理办公室（苏州市文化研究中心）,120.6357754,31.30887532,120.6251072,31.3050316
47,吴歌,民间文学,扩展项目,江苏省无锡市,无锡市锡山区吴歌锡剧研究会,120.3634257,31.59476163,120.3523161,31.59019671
48,吴歌,民间文学,扩展项目,上海市青浦区,上海市青浦区文化馆（上海青浦画院）,121.1317646,31.15637183,121.1206106,31.15252896
49,刘三姐歌谣,民间文学,新增项目,广西壮族自治区宜州市,河池市宜州区刘三姐文化传承中心（河池市宜州区非物质文化遗产保护中心）,108.6698866,24.49861165,108.6593944,24.49595675
50,四季生产调,民间文学,新增项目,云南省红河哈尼族彝族自治州,红河哈尼族彝族自治州非物质文化遗产保护中心,102.586175,23.14038803,102.5785534,23.13718031
51,玛纳斯,民间文学,新增项目,新疆维吾尔自治区克孜勒苏柯尔克孜自治州,克孜勒苏柯尔克孜自治州非物质文化遗产保护（玛纳斯保护研究）中心,76.17430868,39.7204712,76.16476125,39.71408646
52,玛纳斯,民间文学,新增项目,新疆维吾尔自治区文联民间文艺家协会,新疆维吾尔自治区民间文艺家协会，新疆维吾尔自治区艺术研究所（新疆维吾尔自治区非物质文化遗产保护研究中心）,87.60819956,43.81017774,87.59898711,43.8027039
53,江格尔,民间文学,新增项目,新疆维吾尔自治区和布克塞尔蒙古自治县,和布克赛尔蒙古自治县非物质文化遗产保护中心,85.74527876,46.80422253,85.73579809,46.79761475
54,江格尔,民间文学,新增项目,新疆维吾尔自治区博尔塔拉蒙古自治州,博尔塔拉蒙古自治州文化馆,82.89996892,44.61524402,82.89067188,44.60851827
55,江格尔,民间文学,新增项目,新疆维吾尔自治区巴音郭楞蒙古自治州,新疆巴音郭楞蒙古自治州文化馆,86.16501085,41.74156492,86.15603641,41.73383553
56,江格尔,民间文学,新增项目,新疆维吾尔自治区文联民间文艺家协会,新疆维吾尔自治区民间文艺家协会,87.60819956,43.81017774,87.59898711,43.8027039
57,江格尔,民间文学,扩展项目,内蒙古自治区,内蒙古自治区艺术研究院（内蒙古自治区非物质文化遗产保护中心）,111.700452,40.82703497,111.6871207,40.81958505
58,格萨（斯）尔,民间文学,新增项目,内蒙古自治区,内蒙古自治区少数民族古籍征集研究室,111.7726058,40.82315623,111.7590908,40.81597865
59,格萨（斯）尔,民间文学,新增项目,四川省,甘孜藏族自治州文化馆,101.9685467,30.05527884,101.9604817,30.05222095
60,格萨（斯）尔,民间文学,新增项目,云南省,迪庆藏族自治州非物质文化遗产保护中心,99.70952999,27.82518468,99.7020051,27.82249497
61,格萨（斯）尔,民间文学,新增项目,西藏自治区,西藏自治区文化厅,91.04747305,29.64972545,91.03944511,29.64662113
62,格萨（斯）尔,民间文学,新增项目,甘肃省,西北民族大学,103.8259687,36.05021466,103.8170781,36.0443499
63,格萨（斯）尔,民间文学,新增项目,青海省,青海省文学艺术界联合会,94.91342334,36.40205711,94.90610157,36.39631439
64,格萨（斯）尔,民间文学,新增项目,新疆维吾尔自治区,新疆维吾尔自治区民间文艺家协会,87.60819956,43.81017774,87.59898711,43.8027039
65,格萨（斯）尔,民间文学,新增项目,中国社会科学院《格萨（斯）尔》办公室,中国社会科学院《格萨（斯）尔》办公室,116.438033,39.91522209,116.4253142,39.90786776
66,格萨（斯）尔,民间文学,扩展项目,内蒙古自治区巴林右旗,巴林右旗格斯尔文化研究发展中心,118.687798,43.53145628,118.6749714,43.5228776
67,阿诗玛,民间文学,新增项目,云南省石林彝族自治县,石林彝族自治县阿诗玛文化传承与保护中心（石林彝族自治县阿诗玛文化研究所、石林彝族自治县非物质文化遗产保护中心）,103.2782799,24.75961011,103.2698675,24.7568237
68,拉仁布与吉门索,民间文学,新增项目,青海省互助土族自治县,互助土族自治县文化馆,101.9533116,36.84347099,101.9449763,36.83782233
69,畲族小说歌,民间文学,新增项目,福建省霞浦县,霞浦县福宁文化艺术交流中心,120.0114271,26.89134887,120.000571,26.88831989
70,青林寺谜语,民间文学,新增项目,湖北省宜都市,宜都市文化馆（宜都市文艺创作室）,111.4645719,30.39041949,111.4522478,30.38672251
71,谜语（澄海灯谜）,民间文学,扩展项目,广东省汕头市澄海区,汕头市澄海区文化馆,116.7792326,23.4715645,116.7682142,23.46786434
72,八达岭长城传说,民间文学,新增项目,北京市延庆县,北京市延庆区博物馆（北京市延庆区文物管理所）,115.9843381,40.47201105,115.9715738,40.46511227
73,永定河传说,民间文学,新增项目,北京市石景山区,北京市石景山区非物质文化遗产保护中心,116.2296127,39.91135381,116.2169451,39.90447118
74,杨家将传说（穆桂英传说）,民间文学,新增项目,北京市房山区,北京市房山区燕山文化馆,115.9685786,39.73268529,115.9560152,39.72580058
75,杨家将传说（杨家将说唱）,民间文学,新增项目,山西省,广灵县文化馆,114.2885864,39.76600422,114.2756204,39.7590213
76,杨家将传说（杨七郎墓传说）,民间文学,扩展项目,天津市宁河县,天津市宁河区文化馆,117.8357011,39.33839342,117.8231303,39.33107986
77,尧的传说,民间文学,新增项目,山西省绛县,绛县文化馆,111.5834796,35.49579192,111.5710077,35.49015566
78,尧的传说,民间文学,扩展项目,山东省菏泽市牡丹区,菏泽市牡丹区文化馆,115.45719,35.25187795,115.4448554,35.24589934
79,牛郎织女传说,民间文学,新增项目,山西省和顺县,和顺县文化馆,113.575863,37.334144,113.5629013,37.32797505
80,牛郎织女传说,民间文学,新增项目,山东省沂源县,沂源县文化馆（沂源县非物质文化遗产保护中心、沂源县书画院）,118.1644879,36.19657241,118.1520062,36.19057835
81,牛郎织女传说,民间文学,扩展项目,陕西省西安市长安区,西咸新区沣东新城斗门街道办事处,104.1086529,30.64592019,104.0995035,30.64263139
82,西湖传说,民间文学,新增项目,浙江省杭州市,杭州图书馆,120.214775,30.25234206,120.2037195,30.24879775
83,刘伯温传说,民间文学,新增项目,浙江省文成县,文成县非物质文化遗产保护中心,120.1008257,27.79254686,120.0897396,27.78949435
84,刘伯温传说,民间文学,新增项目,浙江省青田县,青田县刘基研究会,120.2965733,28.14548756,120.2856878,28.14303152
85,黄初平（黄大仙）传说,民间文学,新增项目,浙江省金华市,金华黄大仙文化研究会,119.6320517,29.16868639,119.6209224,29.16536579
86,观音传说,民间文学,新增项目,浙江省舟山市,舟山市普陀山风景名胜区管理委员会,122.3976078,30.00797589,122.3868726,30.00389742
87,徐福东渡传说,民间文学,新增项目,浙江省象山县,象山县文化馆,110.2892943,25.27234592,110.2783025,25.26886436
88,徐福东渡传说,民间文学,新增项目,浙江省慈溪市,慈溪市徐福研究会,121.5226176,30.09142067,121.5117974,30.08815957
89,徐福传说,民间文学,扩展项目,山东省胶南市,青岛市黄岛区琅琊暨徐福研究会,119.8647256,35.69495371,119.8531233,35.68897675
90,徐福传说,民间文学,扩展项目,山东省青岛市黄岛区,青岛市黄岛区文化馆,120.0443954,35.90065622,120.0325335,35.89463973
91,徐福传说,民间文学,扩展项目,江苏省赣榆县,连云港市赣榆区金山镇文化站,119.0745929,35.02558013,119.0623674,35.02000337
92,陶朱公传说,民间文学,新增项目,山东省定陶县,菏泽市定陶区文化馆,115.7251654,35.08737218,115.7129206,35.082149
93,麒麟传说,民间文学,新增项目,山东省巨野县,巨野县文化馆,116.0989439,35.40178303,116.08655,35.3962118
94,麒麟传说,民间文学,新增项目,山东省嘉祥县,嘉祥县公共文化服务中心（嘉祥县图书馆、嘉祥县文化馆）,116.3953025,35.41217322,116.3831666,35.40597596
95,鲁班传说,民间文学,新增项目,山东省曲阜市,曲阜市公共文化服务中心（曲阜市文化馆、曲阜市图书馆、曲阜市非物质文化遗产保护中心）,117.000358,35.59862705,116.9882717,35.59244909
96,鲁班传说,民间文学,新增项目,山东省滕州市,山东省滕州市文化馆,117.1725652,35.12003481,117.1601031,35.114744
97,八仙传说,民间文学,新增项目,山东省蓬莱市,蓬莱市文化馆,116.1073529,39.94839892,116.0944206,39.94135362
98,秃尾巴老李的传说,民间文学,新增项目,山东省即墨市,青岛圣龙山旅游开发有限公司,104.6656977,36.87492528,104.6563978,36.86871827
99,秃尾巴老李的传说,民间文学,新增项目,山东省莒县,莒县文化馆,118.8471781,35.57437754,118.8351721,35.56879389
100,秃尾巴老李的传说,民间文学,新增项目,山东省文登市,威海市文登区文化馆（威海市文登区非物质文化遗产保护中心、威海市文登区美术馆）,122.0939512,37.20375097,122.0823213,37.19713237
101,秃尾巴老李的传说,民间文学,新增项目,山东省诸城市,诸城市文化馆,119.4125384,36.02293648,119.4002633,36.01633803
102,屈原传说,民间文学,新增项目,湖北省秭归县,秭归县文化馆（县非物质文化遗产保护中心）,110.988274,30.83032233,110.9765224,30.82658718
103,王昭君传说,民间文学,新增项目,湖北省兴山县,兴山县文化馆,110.7578345,31.35454046,110.7461797,31.35036927
104,炎帝神农传说,民间文学,新增项目,湖北省随州市,随县文化馆（随县非物质文化遗产保护中心）,113.3050866,31.87758924,113.2925746,31.87343914
105,炎帝神农传说,民间文学,新增项目,湖北省神农架林区,神农架林区群众艺术馆,110.6804599,31.75213045,110.6688591,31.74838927
106,木兰传说,民间文学,新增项目,河南省虞城县,虞城县文化馆,115.834473,34.4053315,115.8225215,34.40064242
107,木兰传说,民间文学,新增项目,湖北省武汉市黄陂区,武汉市黄陂区文化馆（武汉市黄陂区非物质文化遗产保护中心）,114.3874522,30.87550224,114.3754044,30.87148881
108,木兰传说,民间文学,扩展项目,陕西省延安市宝塔区,延安市宝塔区文化馆,109.4992895,36.60500175,109.4872935,36.59921151
109,巴拉根仓的故事,民间文学,新增项目,内蒙古自治区通辽市,通辽市群众艺术馆,122.272928,43.62874055,122.2609794,43.62008572
110,北票民间故事,民间文学,新增项目,辽宁省北票市,北票市文旅体育事务服务中心（北票市博物馆、北票市文物考古研究所、北票市尹湛纳希纪念馆）,120.776343,41.80523689,120.7642749,41.79735305
111,满族民间故事,民间文学,新增项目,辽宁省文学艺术界联合会民间文艺家协会,辽宁省文化遗产保护中心（辽宁省非物质文化遗产保护中心）,123.4637122,41.79989324,123.4511584,41.79136909
112,徐文长故事,民间文学,新增项目,浙江省绍兴市,绍兴市文化馆、绍兴市非物质文化遗产保护中心,120.5864075,30.00261018,120.5758762,29.99906736
113,崂山民间故事,民间文学,新增项目,山东省青岛市崂山区,青岛市崂山区文化旅游产业协会,120.4753972,36.11349942,120.464016,36.10700132
114,都镇湾故事,民间文学,新增项目,湖北省长阳土家族自治县,长阳土家族自治县民族民间传统文化保护中心,111.2154371,30.48003374,111.2033494,30.47656911
115,盘古神话,民间文学,新增项目,河南省桐柏县,桐柏县人民文化馆,113.4344727,32.38513075,113.4217283,32.3810879
116,盘古神话,民间文学,新增项目,河南省泌阳县,泌阳县文化馆,113.333558,32.72973065,113.3207792,32.72597524
117,邵原神话群,民间文学,新增项目,河南省济源市,济源市邵原镇女娲文化研究基地,112.1401005,35.16660317,112.1271183,35.16135204
118,嘎达梅林,民间文学,新增项目,内蒙古自治区科尔沁左翼中旗,科尔沁左翼中旗文化遗产保护中心,123.3185885,44.13229423,123.305723,44.12440521
119,科尔沁潮尔史诗,民间文学,新增项目,内蒙古自治区,内蒙古师范大学,111.701164,40.80962898,111.6878511,40.80218422
120,仰阿莎,民间文学,新增项目,贵州省黔东南苗族侗族自治州,黔东南苗族侗族自治州文化研究所,107.9919184,26.5886811,107.9813345,26.58597568
121,布依族盘歌,民间文学,新增项目,贵州省盘县,盘州市非物质文化遗产保护中心,104.4785818,25.71565126,104.4696247,25.71287138
122,梅葛,民间文学,新增项目,云南省楚雄彝族自治州,楚雄彝族自治州非物质文化遗产保护中心,101.5524723,25.03886039,101.5445783,25.03588339
123,查姆,民间文学,新增项目,云南省双柏县,双柏县文化馆,101.648407,24.69489853,101.6406136,24.69173779
124,达古达楞格莱标,民间文学,新增项目,云南省德宏傣族景颇族自治州,德宏州文化馆,98.57515087,24.4499994,98.56844616,24.44740764
125,哈尼哈吧,民间文学,新增项目,云南省元阳县,元阳县文化馆,102.8470163,23.22633239,102.8392281,23.2228682
126,召树屯与喃木诺娜,民间文学,新增项目,云南省西双版纳傣族自治州,西双版纳傣族自治州文化馆,100.800947,22.00278598,100.7933658,21.99934249
127,米拉尕黑,民间文学,新增项目,甘肃省东乡族自治县,东乡族自治县文化馆,103.3976767,35.67046164,103.3885084,35.66488298
128,康巴拉伊,民间文学,新增项目,青海省治多县,治多县民族语文工作中心,95.61979357,33.85795327,95.61252293,33.85385014
129,汗青格勒,民间文学,新增项目,青海省海西蒙古族藏族自治州,海西州文化馆（海西州非物质文化遗产传承保护中心、 海西州民族文化体育活动中心）,97.37087425,37.3773353,97.36349753,37.37106187
130,维吾尔族达斯坦,民间文学,新增项目,新疆维吾尔自治区,新疆维吾尔自治区民间文艺家协会,87.60819956,43.81017774,87.59898711,43.8027039
131,哈萨克族达斯坦,民间文学,新增项目,新疆维吾尔自治区文学艺术界联合会民间文艺家协会,新疆维吾尔自治区民间文艺家协会,87.60819956,43.81017774,87.59898711,43.8027039
132,哈萨克族达斯坦,民间文学,新增项目,新疆维吾尔自治区沙湾县,沙湾县文化馆,103.5577528,29.42064157,103.5493341,29.41731222
133,哈萨克族达斯坦,民间文学,新增项目,新疆维吾尔自治区福海县,福海县文化馆,87.48902414,47.11640929,87.47931824,47.10903751
134,珠郎娘美,民间文学,新增项目,贵州省榕江县,榕江县非物质文化遗产保护中心,108.526191,25.93433945,108.5156348,25.93170504
135,珠郎娘美,民间文学,新增项目,贵州省从江县,从江县非物质文化遗产保护中心,108.9115614,25.75988133,108.9009899,25.75741887
136,司岗里,民间文学,新增项目,云南省沧源佤族自治县,沧源佤族自治县文化馆,99.2527217,23.15287873,99.2454804,23.14937686
137,司岗里,民间文学,扩展项目,云南省西盟佤族自治县,西盟佤族自治县文化馆,99.60081077,22.6493609,99.59360156,22.64621922
138,彝族克智,民间文学,新增项目,四川省美姑县,美姑县文化馆,103.1385858,28.33401962,103.1299681,28.33160596
139,苗族贾理,民间文学,新增项目,贵州省黔东南苗族侗族自治州,黔东南苗族侗族自治州文化研究所,107.9919184,26.5886811,107.9813345,26.58597568
140,藏族婚宴十八说,民间文学,新增项目,青海省,青海省文化馆,101.7878828,36.61318556,101.7794968,36.60714058
141,童谣（北京童谣）,民间文学,新增项目,北京市宣武区,北京市宣武师范学校附属第一小学,116.3712348,39.88109562,116.3584773,39.8738105
142,童谣（闽南童谣）,民间文学,新增项目,福建省厦门市,厦门市集美区灌口小学（福建省厦门实验小学集美分校）,118.0022647,24.60891608,117.9909255,24.60587722
143,童谣（绍兴童谣）,民间文学,扩展项目,浙江省绍兴市,绍兴市文化馆、绍兴市非物质文化遗产保护中心,120.5864075,30.00261018,120.5758762,29.99906736
144,童谣（纳西族童谣）,民间文学,扩展项目,云南省丽江市古城区,古城区非物质文化遗产保护管理中心,100.2259295,26.88149889,100.2183356,26.87887747
145,桐城歌,民间文学,新增项目,安徽省桐城市,桐城市文化馆,116.9578399,31.05396981,116.946179,31.05057962
146,土家族梯玛歌,民间文学,新增项目,湖南省龙山县,龙山县非物质文化遗产保护中心,125.1573471,42.90766472,125.1445778,42.89881989
147,雷州歌,民间文学,新增项目,广东省雷州市,雷州市雷歌研究会,110.1025805,20.91988059,110.0915162,20.91655681
148,壮族嘹歌,民间文学,新增项目,广西壮族自治区平果县,平果市文化体育推广中心（平果市民俗文化传承展示中心）,107.5904769,23.31859658,107.5800062,23.31575228
149,柯尔克孜约隆,民间文学,新增项目,新疆维吾尔自治区阿克陶县,新疆阿克陶县文化馆,75.95021011,39.15391062,75.9409492,39.14778953
150,柯尔克孜约隆,民间文学,新增项目,新疆师范大学,新疆师范大学,87.71288216,43.80875132,87.70344313,43.80118672
151,笑话（万荣笑话）,民间文学,新增项目,山西省万荣县,万荣县笑话发展协会,110.8445761,35.4211088,110.8324762,35.41578453
152,天坛传说,民间文学,新增项目,北京市东城区,北京市天坛公园管理处,116.4248746,39.88478582,116.4121943,39.87718326
153,曹雪芹传说,民间文学,新增项目,北京市海淀区,北京市植物园,116.504434,39.99034407,116.4919404,39.98296626
154,契丹始祖传说,民间文学,新增项目,河北省平泉县,平泉市文化馆,118.6997794,41.01008282,118.687242,41.00212366
155,赵氏孤儿传说,民间文学,新增项目,山西省盂县,盂县人民文化馆,113.4195939,38.09312658,113.4062406,38.08604606
156,白马拖缰传说,民间文学,新增项目,山西省晋城市城区,晋城市城区文化馆,112.8815891,35.49816052,112.8689557,35.49285049
157,舜的传说,民间文学,新增项目,山西省沁水县,沁水县文化馆,112.193333,35.69455176,112.18059,35.68839638
158,舜的传说,民间文学,新增项目,山东省诸城市,诸城市文化馆,119.4125384,36.02293648,119.4002633,36.01633803
159,禹的传说,民间文学,新增项目,四川省汶川县,汶川县文化馆,103.5875857,31.47830316,103.5790788,31.47454631
160,禹的传说,民间文学,新增项目,四川省北川羌族自治县,北川羌族自治县文化馆,104.4782559,31.61619903,104.4690347,31.61255515
161,禹的传说（武汉大禹治水传说）,民间文学,扩展项目,湖北省武汉市汉阳区,武汉市晴川阁管理处（武汉大禹文化博物馆）,114.2909958,30.56102498,114.2790281,30.55771928
162,防风传说,民间文学,新增项目,浙江省德清县,德清县文化馆,119.9899545,30.52941443,119.978837,30.52563261
163,盘瓠传说,民间文学,新增项目,湖南省泸溪县,泸溪县非物质文化遗产保护中心,110.2265992,28.2218731,110.2152445,28.21956928
164,庄子传说,民间文学,新增项目,山东省东明县,山东省东明县文化馆,115.1140251,35.28172494,115.1015681,35.27591705
165,柳毅传说,民间文学,新增项目,山东省潍坊市寒亭区,潍坊市寒亭区文化馆,119.2115654,36.78281416,119.1991894,36.77665309
166,禅宗祖师传说,民间文学,新增项目,湖北省黄梅县,黄梅县文化馆,115.9629201,30.10028927,115.951407,30.09705042
167,禅宗祖师传说（六祖传说）,民间文学,扩展项目,广东省云浮市新兴县,新兴县文化馆,130.928446,45.83148757,130.9146868,45.82307987
168,布袋和尚传说,民间文学,新增项目,浙江省奉化市,宁波市奉化区文化馆,121.4221378,29.67722784,121.4111297,29.67341434
169,钱王传说,民间文学,新增项目,浙江省临安市,杭州市临安区文化馆（杭州市临安区非物质文化遗产保护中心）,119.7261668,30.23534092,119.7147386,30.23200951
170,苏东坡传说,民间文学,新增项目,浙江省杭州市,杭州西湖博物馆总馆（西湖学研究院、杭州西湖风景名胜区网宣中心）,120.1647513,30.2473752,120.1535293,30.24386293
171,苏东坡传说,民间文学,扩展项目,湖北省黄冈市,黄冈市群众艺术馆（黄冈市民俗博物馆）,114.9145287,30.47659431,114.9029054,30.47358934
172,王羲之传说,民间文学,新增项目,浙江省绍兴市,绍兴市文化馆、绍兴市非物质文化遗产保护中心,120.5864075,30.00261018,120.5758762,29.99906736
173,李时珍传说,民间文学,新增项目,湖北省蕲春县,蕲春县文化馆,115.4508678,30.23084233,115.4389954,30.22688754
174,蔡伦造纸传说,民间文学,新增项目,陕西省汉中市,汉中市民间文艺家协会,107.0294302,33.07379991,107.0184794,33.06948849
175,牡丹传说,民间文学,新增项目,山东省菏泽市牡丹区,菏泽市牡丹区文化馆,115.45719,35.25187795,115.4448554,35.24589934
176,泰山传说,民间文学,新增项目,山东省泰安市,泰安市泰山风景名胜区管理委员会（泰山林场）,117.093501,36.20633587,117.0809338,36.20014656
177,黄鹤楼传说,民间文学,新增项目,湖北省武汉市武昌区,武汉市黄鹤楼公园管理处,114.310679,30.54913892,114.298654,30.54590423
178,烂柯山的传说,民间文学,新增项目,山西省陵川县,陵川县文化馆（陵川县上党梆子传习所）,113.2851667,35.78037505,113.2723129,35.77413407
179,烂柯山的传说,民间文学,新增项目,浙江省衢州市,衢州市文化馆（衢州市非物质文化遗产保护中心）,118.5205686,28.90380978,118.5091076,28.90111706
180,珞巴族始祖传说,民间文学,新增项目,西藏自治区米林县,西藏林芝市米林县文化和旅游局,94.21993858,29.22091654,94.21243459,29.21773411
181,阿尼玛卿雪山传说,民间文学,新增项目,青海省果洛藏族自治州,果洛州文化馆（果洛州非物质文化遗产传承保护中心、果洛州群众体育指导服务中心）,101.4924897,33.43565942,101.4840913,33.43150021
182,锡伯族民间故事,民间文学,新增项目,辽宁省沈阳市,沈阳市于洪区文化旅游体育事务服务中心,123.314633,41.79966826,123.3020751,41.79168264
183,嘉黎民间故事,民间文学,新增项目,西藏自治区嘉黎县,西藏那曲市嘉黎县文化和旅游局,93.23873152,30.64706246,93.2310475,30.64353368
184,海洋动物故事,民间文学,新增项目,浙江省洞头县,温州市洞头区民间文艺工作者协会,121.1635486,27.84187032,121.1527207,27.83918375
185,土家族哭嫁歌,民间文学,新增项目,湖南省永顺县,永顺县非物质文化遗产保护中心,109.8635858,28.98577449,109.8523802,28.98329018
186,土家族哭嫁歌,民间文学,新增项目,湖南省古丈县,古丈县非物质文化遗产保护中心,109.9575074,28.62308353,109.9463916,28.62052593
187,坡芽情歌,民间文学,新增项目,云南省富宁县,富宁县文化馆,105.6436708,23.62883054,105.6340373,23.62576392
188,祝赞词,民间文学,新增项目,内蒙古自治区东乌珠穆沁旗,东乌珠穆沁旗文化馆,116.9785044,45.51574331,116.9650897,45.50790702
189,祝赞词,民间文学,新增项目,新疆维吾尔自治区博湖县,博湖县非物质文化遗产保护中心,86.63846915,41.98643036,86.62982342,41.97900051
190,祝赞词,民间文学,新增项目,新疆维吾尔自治区和布克赛尔蒙古自治县,和布克赛尔蒙古自治县非物质文化遗产保护中心,85.74527876,46.80422253,85.73579809,46.79761475
191,祝赞词（肃北蒙古族祝赞词）,民间文学,扩展项目,甘肃省酒泉市肃北蒙古族自治县,肃北蒙古族自治县文化馆,94.8836924,39.51832974,94.87612679,39.51198763
192,黑暗传,民间文学,新增项目,湖北省保康县,保康县文化馆,111.2687111,31.88052477,111.256542,31.87650525
193,黑暗传,民间文学,新增项目,湖北省神农架林区,神农架林区群众艺术馆,110.6804599,31.75213045,110.6688591,31.74838927
194,陶克陶胡,民间文学,新增项目,吉林省前郭尔罗斯蒙古族自治县,前郭尔罗斯蒙古族自治县文化工作总站（前郭县非物质文化遗产保护中心）,124.8632572,45.1195405,124.8504132,45.11200357
195,密洛陀,民间文学,新增项目,广西壮族自治区都安瑶族自治县,都安瑶族自治县文化馆,108.1098219,23.94800955,108.0991611,23.94434703
196,亚鲁王,民间文学,新增项目,贵州省紫云苗族布依族自治县,紫云苗族布依族自治县亚鲁王文化研究中心,106.0947124,25.76511922,106.0845756,25.76171654
197,目瑙斋瓦,民间文学,新增项目,云南省德宏傣族景颇族自治州,德宏州文化馆,98.57515087,24.4499994,98.56844616,24.44740764
198,洛奇洛耶与扎斯扎依,民间文学,新增项目,云南省墨江哈尼族自治县,墨江哈尼族自治县文化馆,101.6987338,23.43423085,101.6907046,23.43124932
199,阿细先基,民间文学,新增项目,云南省弥勒县,弥勒市文化馆,103.4214891,24.41798223,103.4129064,24.41466501
200,羌戈大战,民间文学,新增项目,四川省汶川县,汶川县文化馆,103.5875857,31.47830316,103.5790788,31.47454631
201,恰克恰克,民间文学,新增项目,新疆维吾尔自治区伊宁市,伊宁市文化馆,81.33705325,43.9228267,81.3274894,43.91555717
202,酉阳古歌,民间文学,新增项目,重庆市酉阳土家族苗族自治县,酉阳土家族苗族自治县文化馆（酉阳土家族苗族自治县文化生态保护中心、酉阳土家族苗族自治县非物质文化遗产保护中心）,108.7743324,28.84698687,108.7634195,28.84441673
203,谚语（沪谚）,民间文学,新增项目,上海市闵行区,上海市闵行区浦江镇文化体育事业发展中心,121.5352295,31.06959582,121.5244212,31.06581333
204,谚语（陕北民谚）,民间文学,扩展项目,陕西省榆林市,榆林市公共文化服务中心（榆林市博物馆、榆林市图书馆、榆林市文化馆）,109.7384041,38.26443594,109.726238,38.25822319
205,谚语（哈萨克族谚语）,民间文学,扩展项目,新疆维吾尔自治区伊犁哈萨克自治州特克斯县,特克斯县文化馆,81.84901561,43.22377061,81.83977058,43.21626717
206,卢沟桥传说,民间文学,新增项目,北京市丰台区,北京市丰台区文化馆,116.2901797,39.86574563,116.2777389,39.85816273
207,鬼谷子传说 ,民间文学,新增项目,河北省临漳县,临漳县文化馆,114.5986909,36.33336123,114.5867187,36.32718113
208,东海孝妇传说,民间文学,新增项目,江苏省连云港市,连云港市孝文化研究会,119.1461953,34.5777416,119.1340416,34.57248548
209,刘阮传说,民间文学,新增项目,浙江省天台县,台州市天台山文化研究会,121.0405244,29.15075652,121.0296417,29.14769886
210,孔雀东南飞传说,民间文学,新增项目,安徽省怀宁县,怀宁县文化馆,116.8338988,30.73845662,116.8222459,30.73523375
211,孔雀东南飞传说,民间文学,新增项目,安徽省潜山县,潜山市文化馆,116.5864324,30.63662626,116.5749623,30.63356283
212,老子传说,民间文学,新增项目,安徽省涡阳县,涡阳县文化馆,116.222378,33.51469356,116.2103916,33.51053714
213,老子传说,民间文学,新增项目,河南省灵宝市,灵宝市文化馆,110.89795,34.53345697,110.8861487,34.52862449
214,陈三五娘传说,民间文学,新增项目,福建省泉州市洛江区,泉州市洛江区文化馆,118.6305088,24.99271635,118.6194523,24.99003766
215,胡峄阳传说,民间文学,新增项目,山东省青岛市城阳区,青岛城阳流亭峄阳文化园,120.4184405,36.27661293,120.4066774,36.27060309
216,孟母教子传说,民间文学,新增项目,山东省邹城市,邹城市文化旅游公共服务中心（邹城市图书馆、邹城市文化馆）,117.0123946,35.41305677,117.0002578,35.40696674
217,河图洛书传说,民间文学,新增项目,河南省洛阳市,洛阳市文化馆（洛阳市非物质文化遗产保护中心）,112.4594213,34.62426278,112.4467477,34.61902445
218,杞人忧天传说,民间文学,新增项目,河南省杞县,杞县人民文化馆（杞县送戏下乡艺术团）,114.7631731,34.56261393,114.7510191,34.55789555
219,三国传说,民间文学,新增项目,湖北省,湖北省群众艺术馆（湖北省非物质文化遗产保护中心）,114.337185,30.53160289,114.3251968,30.5279736
220,伯牙子期传说,民间文学,新增项目,湖北省武汉市,武汉市群众艺术馆,114.337185,30.53160289,114.3251968,30.5279736
221,尹吉甫传说,民间文学,新增项目,湖北省房县,房县文化馆,110.7450137,32.0637381,110.7332737,32.05975551
222,苏仙传说,民间文学,新增项目,湖南省郴州市苏仙区,郴州市苏仙区文化馆,113.0508811,25.81185551,113.0388448,25.80842485
223,毕阿史拉则传说,民间文学,新增项目,四川省金阳县,金阳县文化馆,103.254549,27.70214451,103.2460917,27.69979937
224,仓颉传说,民间文学,新增项目,陕西省洛南县,洛南县文化馆,110.1474444,34.09049529,110.1356249,34.08563867
225,仓颉传说,民间文学,新增项目,陕西省白水县,白水县文化馆,109.5995958,35.18487454,109.5880246,35.17972617
226,骆驼泉传说,民间文学,新增项目,青海省循化撒拉族自治县,循化撒拉族自治县文化馆,102.4953853,35.85666722,102.4871854,35.85066277
227,回族民间故事,民间文学,新增项目,宁夏回族自治区泾源县,泾源县文化馆,106.328525,35.50192182,106.3178696,35.49592523
228,广禅侯故事,民间文学,新增项目,山西省阳城县,阳城县文化馆,112.4293918,35.48791076,112.4165734,35.48182216
229,解缙故事,民间文学,新增项目,江西省吉水县,吉水县文化馆,115.1384229,27.21698797,115.1266452,27.21444836
230,壮族百鸟衣故事,民间文学,新增项目,广西壮族自治区横县,横县文化馆（横县非物质文化遗产保护中心）,116.1073529,39.94839892,116.0944206,39.94135362
231,阿凡提故事,民间文学,新增项目,新疆维吾尔自治区喀什地区,喀什地区文化馆,76.02179598,39.47540513,76.01215116,39.46932781
232,广阳镇民间故事,民间文学,新增项目,重庆市南岸区,重庆市南岸区文化馆,106.6684298,29.5026831,106.6581938,29.49934948
233,西王母神话,民间文学,新增项目,新疆维吾尔自治区阜康市,新疆天池管理委员会（新疆天山天池风景名胜区管理委员会、新疆天池博格达峰自然保护区管理局）,126.6323163,45.61202328,126.619928,45.60397731
234,盘王大歌,民间文学,新增项目,湖南省江华瑶族自治县,江华瑶族自治县文化馆,111.5817229,25.18790687,111.5701022,25.18484605
235,玛牧,民间文学,新增项目,四川省喜德县,喜德县文化馆（喜德县美术馆）,102.4188872,28.31170071,102.4106231,28.30928211
236,黑白战争,民间文学,新增项目,云南省丽江市古城区,古城区非物质文化遗产保护管理中心,100.2259295,26.88149889,100.2183356,26.87887747
237,祁家延西,民间文学,新增项目,青海省互助土族自治县,互助土族自治县文化馆,101.9533116,36.84347099,101.9449763,36.83782233
238,常山喝彩歌谣,民间文学,新增项目,浙江省常山县,常山县文化馆,118.5205686,28.90380978,118.5091076,28.90111706
239,八大处传说,民间文学,新增项目,北京市石景山区,北京市八大处公园管理处,116.1908372,39.96202889,116.178228,39.95464158
240,玄奘传说,民间文学,新增项目,河南省洛阳市偃师区,洛阳市偃师区人民文化馆,112.8015553,34.72930725,112.7890095,34.72406301
241,女娲传说,民间文学,新增项目,湖北省十堰市竹山县,竹山县文化馆,110.2442401,32.22580326,110.2326363,32.22219954
242,老司城传说,民间文学,新增项目,湖南省湘西土家族苗族自治州永顺县,永顺县非物质文化遗产保护中心,109.8635858,28.98577449,109.8523802,28.98329018
243,珠玑巷人南迁传说,民间文学,新增项目,广东省韶关市南雄市,南雄市非物质文化遗产传承保护中心,114.3185789,25.12352654,114.3069724,25.12056552
244,张骞传说,民间文学,新增项目,陕西省汉中市城固县,城固县文化馆,107.3265476,33.15423235,107.3152466,33.15020322
245,藏族民间传说（年保玉则传说）,民间文学,新增项目,青海省果洛藏族自治州久治县,久治县文化馆,101.4924897,33.43565942,101.4840913,33.43150021
246,鄂温克族民间故事,民间文学,新增项目,内蒙古自治区呼伦贝尔市鄂温克族自治旗,鄂温克族自治旗文化旅游事业发展中心（鄂温克族自治旗文化馆、鄂温克族自治旗非物质文化遗产保护中心）,119.7633102,49.14375338,119.7496115,49.13545789
247,包公故事,民间文学,新增项目,安徽省合肥市,合肥市文化馆,117.2334427,31.82657783,117.2215173,31.82229951
248,仫佬族古歌,民间文学,新增项目,广西壮族自治区河池市罗城仫佬族自治县,罗城仫佬族自治县文化馆,108.9127552,24.78699797,108.9022299,24.78441383
249,巴狄雄萨滚,民间文学,新增项目,贵州省铜仁市松桃苗族自治县,松桃苗族自治县文化馆,109.2071545,28.16043801,109.1961597,28.15746717
250,都玛简收,民间文学,新增项目,云南省红河哈尼族彝族自治州绿春县,绿春县文化馆（绿春县非物质文化遗产保护中心）,102.4302561,22.99663612,102.422172,22.99358448
251,左权开花调,传统音乐,新增项目,山西省左权县,左权县人民文化馆,113.3854518,37.08855515,113.3722014,37.08174979
252,河曲民歌,传统音乐,新增项目,山西省河曲县,河曲县宣传事务中心,111.1544275,39.38989186,111.1413414,39.38271851
253,蒙古族长调民歌,传统音乐,新增项目,内蒙古自治区,内蒙古自治区艺术研究院（内蒙古自治区非物质文化遗产保护中心）,111.700452,40.82703497,111.6871207,40.81958505
254,蒙古族长调民歌,传统音乐,扩展项目,新疆维吾尔自治区巴音郭楞蒙古自治州,新疆巴音郭楞蒙古自治州文化馆,86.16501085,41.74156492,86.15603641,41.73383553
255,蒙古族长调民歌,传统音乐,扩展项目,新疆维吾尔自治区和布克赛尔蒙古自治县,和布克赛尔蒙古自治县非物质文化遗产保护中心,85.74527876,46.80422253,85.73579809,46.79761475
256,蒙古族长调民歌（巴尔虎长调）,传统音乐,扩展项目,内蒙古自治区新巴尔虎左旗,新巴尔虎左旗文化馆（新巴尔虎左旗美术馆、新巴尔虎左旗非物质文化遗产保护中心）,118.2629873,48.22410575,118.2488825,48.21654862
257,蒙古族长调民歌（乌珠穆沁长调）,传统音乐,扩展项目,内蒙古自治区锡林郭勒盟西乌珠穆沁旗,西乌珠穆沁旗文化旅游事业发展中心,117.616377,44.59380291,117.6031219,44.58588183
258,蒙古族呼麦,传统音乐,新增项目,内蒙古自治区,内蒙古自治区艺术研究院（内蒙古自治区非物质文化遗产保护中心）,111.700452,40.82703497,111.6871207,40.81958505
259,蒙古族呼麦,传统音乐,扩展项目,新疆维吾尔自治区阿勒泰地区,阿勒泰市文化馆（阿勒泰市非物质文化遗产保护中心、阿勒泰市美术馆）,88.13781829,47.83635102,88.1278207,47.82927237
260,当涂民歌,传统音乐,新增项目,安徽省马鞍山市,当涂县文化馆,118.5064107,31.56998661,118.4946165,31.56631255
261,巢湖民歌,传统音乐,新增项目,安徽省巢湖市,巢湖市文化馆,117.8713549,31.60405227,117.8595923,31.60009108
262,畲族民歌,传统音乐,新增项目,福建省宁德市,宁德市艺术馆,119.5545107,26.67224171,119.5434182,26.66969569
263,畲族民歌,传统音乐,扩展项目,浙江省景宁畲族自治县,景宁畲族自治县文物和非遗保护中心,119.6424303,27.97955397,119.6313954,27.97660354
264,畲族民歌,传统音乐,扩展项目,浙江省泰顺县,泰顺县非物质文化遗产保护中心（泰顺县廊桥申遗和保护研究中心）,119.7207762,27.56036987,119.7095583,27.55785957
265,兴国山歌,传统音乐,新增项目,江西省兴国县,兴国县文化馆,115.3625317,26.33344012,115.3508345,26.33072897
266,兴山民歌,传统音乐,新增项目,湖北省兴山县,兴山县文化馆,110.7578345,31.35454046,110.7461797,31.35036927
267,桑植民歌,传统音乐,新增项目,湖南省桑植县,桑植县非物质文化遗产保护中心,110.1704134,29.40592322,110.1590587,29.4022265
268,梅州客家山歌,传统音乐,新增项目,广东省梅州市,梅州市文化馆（梅州市非物质文化遗产保护中心）,116.133947,24.30253599,116.122615,24.29921687
269,中山咸水歌,传统音乐,新增项目,广东省中山市,中山市文化馆,113.2898977,22.7168602,113.2781242,22.71334487
270,崖州民歌,传统音乐,新增项目,海南省三亚市,三亚市群众艺术馆,109.5339322,18.29255179,109.5233687,18.28835464
271,崖州民歌,传统音乐,扩展项目,海南省乐东黎族自治县,乐东黎族自治县文化馆,109.1797701,18.75529905,109.1691613,18.75089599
272,儋州调声,传统音乐,新增项目,海南省儋州市,儋州市文化馆,109.5875453,19.5289986,109.5770806,19.52482806
273,石柱土家啰儿调,传统音乐,新增项目,重庆市石柱土家族自治县,石柱土家族自治县文化生态保护管理中心,108.1204142,30.0061087,108.1094224,30.00225125
274,巴山背二歌,传统音乐,新增项目,四川省巴中市,巴中市文化馆,106.8317592,32.35256658,106.8211593,32.34884384
275,傈僳族民歌,传统音乐,新增项目,云南省怒江傈僳族自治州,怒江傈僳族自治州文化馆,98.86031104,25.83195501,98.85341223,25.829208
276,傈僳族民歌,传统音乐,新增项目,云南省泸水县,泸水市文化馆,98.86541072,25.82415379,98.85853961,25.82133596
277,紫阳民歌,传统音乐,新增项目,陕西省紫阳县,紫阳县文化馆,108.5436479,32.52421193,108.5326647,32.52085837
278,裕固族民歌,传统音乐,新增项目,甘肃省肃南裕固族自治县,肃南裕固族自治县非物质文化遗产保护传承中心,99.62190542,38.84310021,99.61427467,38.83664061
279,花儿（莲花山花儿会）,传统音乐,新增项目,甘肃省康乐县,康乐县文化馆,103.7273541,35.38479644,103.7183633,35.37952167
280,花儿（松鸣岩花儿会）,传统音乐,新增项目,甘肃省和政县,和政县文化馆,103.3575237,35.4305899,103.3485336,35.42496945
281,花儿（二郎山花儿会）,传统音乐,新增项目,甘肃省岷县,岷县文化馆,104.0517919,34.44232448,104.0427515,34.43733857
282,花儿（老爷山花儿会）,传统音乐,新增项目,青海省大通回族土族自治县,大通回族土族自治县文化馆,101.6969886,36.93240583,101.6885027,36.9266058
283,花儿（丹麻土族花儿会）,传统音乐,新增项目,青海省互助土族自治县,互助土族自治县文化馆,101.9533116,36.84347099,101.9449763,36.83782233
284,花儿（瞿昙寺花儿会）,传统音乐,新增项目,青海省乐都县,海东市乐都区文化馆,102.4085663,36.48782005,102.3999789,36.48193926
285,花儿（七里寺花儿会）,传统音乐,新增项目,青海省民和回族土族自治县,民和回族土族自治县文化馆,102.8106949,36.33392745,102.8023139,36.32825111
286,花儿（宁夏回族山花儿）,传统音乐,新增项目,宁夏回族自治区,宁夏回族自治区文化馆（宁夏回族自治区非物质文化遗产保护中心、宁夏回族自治区展览馆）,106.1937689,38.48762126,106.1829152,38.48086093
287,花儿（新疆花儿）,传统音乐,扩展项目,新疆维吾尔自治区昌吉回族自治州,乌鲁木齐市米东区文化馆,87.66300383,43.96910117,87.6534314,43.96217653
288,花儿（新疆花儿）,传统音乐,扩展项目,新疆维吾尔自治区巴音郭楞蒙古自治州,焉耆回族自治县文化馆,86.58122203,42.06485086,86.57235807,42.05792353
289,花儿（张家川花儿）,传统音乐,扩展项目,甘肃省张家川回族自治县,张家川回族自治县文化馆,106.2147959,34.99320004,106.2042522,34.98777443
290,藏族拉伊,传统音乐,新增项目,青海省海南藏族自治州,海南藏族自治州文化馆（海南藏族自治州非物质文化遗产传承保护中心）,99.9932659,35.59565485,99.98546061,35.59009979
291,藏族拉伊（那曲拉伊）,传统音乐,扩展项目,西藏自治区那曲地区,西藏那曲市群众艺术馆,92.06747606,31.47535075,92.05970516,31.4714411
292,聊斋俚曲,传统音乐,新增项目,山东省淄博市,淄川区聊斋俚曲艺术团,117.9734119,36.64983481,117.9611913,36.64332696
293,靖州苗族歌鼟,传统音乐,新增项目,湖南省靖州苗族侗族自治县,靖州苗族侗族自治县博物馆（靖州苗族侗族自治县非物质文化遗产保护中心）,109.7270557,26.5682438,109.7159001,26.56589155
294,川江号子,传统音乐,新增项目,重庆市,重庆市文化研究院（重庆市非物质文化遗产保护中心、重庆市文化行业特有工种职业技能鉴定站）,106.5656465,29.5587336,106.555511,29.55527544
295,川江号子,传统音乐,新增项目,四川省,四川省艺术研究院,104.05965,30.64292984,104.0507238,30.63913539
296,南溪号子,传统音乐,新增项目,重庆市黔江区,重庆市黔江区文化生态保护管理中心,108.7775912,29.53881257,108.7666279,29.53580072
297,木洞山歌,传统音乐,新增项目,重庆市巴南区,重庆市巴南区木洞镇文化服务中心,106.8451408,29.57748141,106.8346627,29.57443731
298,川北薅草锣鼓,传统音乐,新增项目,四川省青川县,青川县文化馆,105.2384162,32.57787555,105.2285655,32.57383918
299,薅草锣鼓（武宁打鼓歌）,传统音乐,扩展项目,江西省武宁县,武宁县文化旅游发展中心,115.1074418,29.26235215,115.095593,29.25877538
300,薅草锣鼓（宜昌薅草锣鼓）,传统音乐,扩展项目,湖北省宜昌市,宜昌市夷陵区文化馆,111.3346235,30.78555001,111.3223368,30.7819069
301,薅草锣鼓（五峰土家族薅草锣鼓）,传统音乐,扩展项目,湖北省五峰土家族自治县,五峰土家族自治县文化馆,111.08549,30.17976916,111.0733134,30.17635964
302,薅草锣鼓（兴山薅草锣鼓）,传统音乐,扩展项目,湖北省兴山县,兴山县文化馆,110.7578345,31.35454046,110.7461797,31.35036927
303,薅草锣鼓（宣恩薅草锣鼓）,传统音乐,扩展项目,湖北省宣恩县,宣恩县文化馆,109.4974186,29.98983963,109.4860131,29.98671915
304,薅草锣鼓（长阳山歌）,传统音乐,扩展项目,湖北省长阳土家族自治县,长阳土家族自治县民族民间传统文化保护中心,111.2154371,30.48003374,111.2033494,30.47656911
305,薅草锣鼓（川东土家族薅草锣鼓）,传统音乐,扩展项目,四川省宣汉县,宣汉县文化馆（宣汉县美术馆）,107.7265824,31.36021073,107.715466,31.35655912
306,薅草锣鼓（金湖秧歌）,传统音乐,扩展项目,江苏省金湖县,金湖县文化馆,119.0174248,33.02495876,119.0055301,33.02069436
307,侗族大歌,传统音乐,新增项目,贵州省黎平县,黎平县非物质文化遗产保护中心,109.143567,26.23687405,109.1324444,26.23438887
308,侗族大歌,传统音乐,新增项目,广西壮族自治区柳州市,柳州市群众艺术馆,109.5541563,24.3785985,109.5433909,24.37534605
309,侗族大歌,传统音乐,新增项目,广西壮族自治区三江侗族自治县,三江侗族自治县文化馆（三江侗族自治县非物质文化遗产保护与发展中心）,109.6139511,25.78723434,109.6030567,25.78472527
310,侗族大歌,传统音乐,扩展项目,贵州省从江县,从江县非物质文化遗产保护中心,108.9115614,25.75988133,108.9009899,25.75741887
311,侗族大歌,传统音乐,扩展项目,贵州省榕江县,榕江县非物质文化遗产保护中心,108.526191,25.93433945,108.5156348,25.93170504
312,侗族琵琶歌,传统音乐,新增项目,贵州省榕江县,榕江县非物质文化遗产保护中心,108.526191,25.93433945,108.5156348,25.93170504
313,侗族琵琶歌,传统音乐,新增项目,贵州省黎平县,黎平县非物质文化遗产保护中心,109.143567,26.23687405,109.1324444,26.23438887
314,侗族琵琶歌,传统音乐,扩展项目,贵州省从江县,从江县非物质文化遗产保护中心,108.9115614,25.75988133,108.9009899,25.75741887
315,哈尼族多声部民歌,传统音乐,新增项目,云南省红河哈尼族彝族自治州,红河哈尼族彝族自治州非物质文化遗产保护中心,102.586175,23.14038803,102.5785534,23.13718031
316,多声部民歌（潮尔道-蒙古族合声演唱）,传统音乐,扩展项目,内蒙古自治区锡林浩特市,锡林浩特市全民健身服务中心,116.0936139,43.9383338,116.0801073,43.93036179
317,多声部民歌（瑶族蝴蝶歌）,传统音乐,扩展项目,广西壮族自治区富川瑶族自治县,富川瑶族自治县文化馆,111.2826964,24.82414693,111.2709993,24.82114044
318,多声部民歌（壮族三声部民歌）,传统音乐,扩展项目,广西壮族自治区马山县,马山县文化馆,108.1791824,23.70790139,108.1685407,23.70476095
319,多声部民歌（羌族多声部民歌）,传统音乐,扩展项目,四川省松潘县,松潘县文化馆,103.6105797,32.66179656,103.6019174,32.65844059
320,多声部民歌（硗碛多声部民歌）,传统音乐,扩展项目,四川省雅安市,宝兴县文化馆,102.8199709,30.38750079,102.8118491,30.38419109
321,多声部民歌（苗族多声部民歌）,传统音乐,扩展项目,贵州省台江县,台江县非物质文化遗产保护中心,119.3205282,26.05852815,119.3091714,26.05565806
322,多声部民歌（苗族多声部民歌）,传统音乐,扩展项目,贵州省剑河县,剑河县非物质文化遗产保护中心,108.449012,26.73365101,108.4382206,26.73111566
323,多声部民歌（潮尔道-阿巴嘎潮尔）,传统音乐,扩展项目,内蒙古自治区阿巴嘎旗,阿巴嘎旗文化馆,114.9573671,44.02810159,114.9443656,44.01996052
324,多声部民歌（阿尔麦多声部民歌）,传统音乐,扩展项目,四川省黑水县,黑水县文化馆,102.9965174,32.06780545,102.9881517,32.06411497
325,彝族海菜腔,传统音乐,新增项目,云南省红河哈尼族彝族自治州,石屏县文化馆,102.4927553,23.71376904,102.4849228,23.71013604
326,那坡壮族民歌,传统音乐,新增项目,广西壮族自治区那坡县,那坡县文化馆,105.8394226,23.39379383,105.8297571,23.39026594
327,澧水船工号子,传统音乐,新增项目,湖南省澧县,澧县文化馆,111.7656669,29.63715086,111.753421,29.63392823
328,古琴艺术,传统音乐,新增项目,中国艺术研究院,中国艺术研究院,116.4280319,39.99072557,116.4153233,39.98317041
329,古琴艺术（虞山琴派）,传统音乐,扩展项目,江苏省常熟市,常熟市虞山琴派艺术工作室,120.7326989,31.67433956,120.7219142,31.66994675
330,古琴艺术（广陵琴派）,传统音乐,扩展项目,江苏省扬州市,扬州市文化馆,119.3200344,33.24282664,119.3080713,33.2384594
331,古琴艺术（金陵琴派）,传统音乐,扩展项目,江苏省南京市,南京市秦淮区文化馆,118.7942916,32.027884,118.7826901,32.02365653
332,古琴艺术（梅庵琴派）,传统音乐,扩展项目,江苏省南通市,南通市非物质文化遗产研究会,120.9015917,31.98654943,120.890784,31.98307057
333,古琴艺术（梅庵琴派）,传统音乐,扩展项目,江苏省镇江市,镇江梦溪琴社,119.4887131,32.20831099,119.4768738,32.20444841
334,古琴艺术（浙派）,传统音乐,扩展项目,浙江省杭州市,杭州市文化馆（杭州市非物质文化遗产保护中心）,120.177442,30.25790403,120.1662039,30.25458171
335,古琴艺术（诸城派）,传统音乐,扩展项目,山东省诸城市,诸城市文化馆,119.4125384,36.02293648,119.4002633,36.01633803
336,古琴艺术（岭南派）,传统音乐,扩展项目,广东省广州市,广州市海珠区文化馆（广州市海珠区非物质文化遗产保护中心）,113.3300946,23.10383987,113.3181284,23.10066863
337,古琴艺术,传统音乐,扩展项目,北京市大兴区,北京钧天坊古琴文化艺术传播有限公司,116.4281459,39.65540881,116.4154872,39.64788754
338,古琴艺术,传统音乐,扩展项目,香港特别行政区,蔡昌寿及蔡昌寿斲琴学会,,,,
339,古琴艺术,传统音乐,扩展项目,陕西省,陕西省艺术研究院,108.9518237,34.29788611,108.9407494,34.2932256
340,蒙古族马头琴音乐,传统音乐,新增项目,内蒙古自治区,内蒙古自治区艺术研究院（内蒙古自治区非物质文化遗产保护中心）,111.700452,40.82703497,111.6871207,40.81958505
341,蒙古族马头琴音乐,传统音乐,扩展项目,吉林省前郭尔罗斯蒙古族自治县,前郭尔罗斯蒙古族自治县民族歌舞传习中心（马头琴乐团）,124.8321141,45.12783362,124.8193601,45.11978285
342,蒙古族马头琴音乐（蒙古勒津马头琴音乐）,传统音乐,扩展项目,辽宁省阜新市,阜新蒙古族自治县文化体育旅游服务中心,121.724127,42.12391808,121.7120685,42.11588159
343,蒙古族四胡音乐,传统音乐,新增项目,内蒙古自治区通辽市,通辽市民族歌舞团,122.272928,43.62874055,122.2609794,43.62008572
344,蒙古族四胡音乐,传统音乐,扩展项目,吉林省前郭尔罗斯蒙古族自治县,前郭尔罗斯蒙古族自治县草原文化馆,124.1023902,44.60839296,124.089443,44.59999248
345,蒙古族四胡音乐,传统音乐,扩展项目,黑龙江省杜尔伯特蒙古族自治县,杜尔伯特蒙古族自治县博物馆,124.4498289,46.87159214,124.4366519,46.86307332
346,蒙古族四胡音乐,传统音乐,扩展项目,内蒙古自治区科尔沁右翼中旗,科尔沁右翼中旗文化馆,118.8958735,32.09152461,118.8843294,32.08775528
347,唢呐艺术,传统音乐,新增项目,河南省沁阳市,沁阳市文化馆（沁阳市非物质文化遗产保中心）,112.9575169,35.09378573,112.9448919,35.08858787
348,唢呐艺术,传统音乐,新增项目,甘肃省庆阳市,庆阳市西峰区文化馆,107.6388201,35.74503613,107.6277097,35.73914467
349,唢呐艺术（唐山花吹）,传统音乐,扩展项目,河北省曹妃甸区,唐山市曹妃甸区文化馆,118.4389405,39.29136994,118.4262931,39.28376627
350,唢呐艺术（丰宁满族吵子会）,传统音乐,扩展项目,河北省丰宁满族自治县,丰宁满族自治县非物质文化遗产保护中心,116.6523927,41.21533638,116.6399796,41.20727541
351,唢呐艺术（晋北鼓吹）,传统音乐,扩展项目,山西省阳高县,阳高县文化馆,113.7541595,40.36203316,113.7408825,40.35454268
352,唢呐艺术（上党八音会）,传统音乐,扩展项目,山西省长子县,长子县文化馆,112.8845659,36.12800156,112.871858,36.12240504
353,唢呐艺术（上党乐户班社）,传统音乐,扩展项目,山西省壶关县,壶关县牛府鼓乐班社,113.2135799,36.1213346,113.2005018,36.11559606
354,唢呐艺术（晋北鼓吹）,传统音乐,扩展项目,山西省忻州市,忻州市忻府区文化馆,112.7526137,38.40987982,112.7394243,38.40361479
355,唢呐艺术（丹东鼓乐）,传统音乐,扩展项目,辽宁省丹东市,丹东市文化体育旅游发展服务中心,124.3615473,40.00640871,124.3492272,39.99895453
356,唢呐艺术（杨小班鼓吹乐棚）,传统音乐,扩展项目,黑龙江省肇州县,肇州县非物质文化遗产保护中心,125.29063,45.71009596,125.2775564,45.70163915
357,唢呐艺术（于都唢呐公婆吹）,传统音乐,扩展项目,江西省于都县,于都县文化馆,115.405965,25.96505501,115.3942284,25.96214906
358,唢呐艺术（万载得胜鼓）,传统音乐,扩展项目,江西省万载县,万载县文化馆,114.452725,28.10938548,114.4409183,28.10663348
359,唢呐艺术（邹城平派鼓吹乐）,传统音乐,扩展项目,山东省邹城市,邹城市文化旅游公共服务中心（邹城市图书馆、邹城市文化馆）,117.0123946,35.41305677,117.0002578,35.40696674
360,唢呐艺术（沮水呜音）,传统音乐,扩展项目,湖北省保康县,保康县文化馆,111.2687111,31.88052477,111.256542,31.87650525
361,唢呐艺术（呜音喇叭）,传统音乐,扩展项目,湖北省南漳县,南漳县文化馆,111.8661539,31.7901307,111.8539925,31.7861974
362,唢呐艺术（远安呜音）,传统音乐,扩展项目,湖北省远安县,远安县文化馆,111.6476748,31.06639461,111.6354854,31.06298661
363,唢呐艺术（青山唢呐）,传统音乐,扩展项目,湖南省湘潭县,湘潭县文化馆,112.9583027,27.78251792,112.9463455,27.77997453
364,唢呐艺术（永城吹打）,传统音乐,扩展项目,重庆市綦江区,重庆市綦江区文化馆,106.6574842,29.03411375,106.6472512,29.03128078
365,唢呐艺术（绥米唢呐）,传统音乐,扩展项目,陕西省绥德县,绥德县文化馆,110.2650506,37.51088767,110.2530721,37.50413231
366,唢呐艺术（绥米唢呐）,传统音乐,扩展项目,陕西省米脂县,米脂县文化馆（米脂县戏曲研究中心）,110.1904514,37.76139751,110.1783651,37.75460431
367,唢呐艺术（徐州鼓吹乐）,传统音乐,扩展项目,江苏省徐州市,徐州文化馆,117.1857991,34.27053198,117.1734175,34.26609482
368,唢呐艺术（砀山唢呐）,传统音乐,扩展项目,安徽省宿州市,砀山县文化馆,116.3559213,34.43216519,116.3437797,34.42756679
369,唢呐艺术（长汀公嫲吹）,传统音乐,扩展项目,福建省长汀县,福建省长汀县文化馆,116.3607848,25.83913495,116.3493683,25.8362529
370,唢呐艺术（临县大唢呐）,传统音乐,扩展项目,山西省临县,临县大唢呐培训活动中心,110.850343,37.98957178,110.8380315,37.98320298
371,唢呐艺术（灵璧菠林喇叭）,传统音乐,扩展项目,安徽省灵璧县,灵璧县文化馆,117.5643321,33.54585536,117.5522366,33.5417078
372,唢呐艺术（五台八大套）,传统音乐,扩展项目,山西省忻州市五台县,五台《山西八大套》研究会,113.2614511,38.73418159,113.2482206,38.72742316
373,唢呐艺术（子长唢呐）,传统音乐,扩展项目,陕西省延安市子长市,子长市文化馆,109.6782616,37.14325057,109.6665131,37.13660739
374,羌笛演奏及制作技艺,传统音乐,新增项目,四川省茂县,茂县文化馆,103.8642845,31.69298081,103.85553,31.68963249
375,辽宁鼓乐,传统音乐,新增项目,辽宁省,辽宁省文化遗产保护中心（辽宁省非物质文化遗产保护中心）,123.4637122,41.79989324,123.4511584,41.79136909
376,辽宁鼓乐,传统音乐,新增项目,辽宁省辽阳市,辽阳市公共文化和体育事务服务中心,123.2069195,41.21890248,123.1945978,41.21101062
377,江南丝竹,传统音乐,新增项目,上海市,上海市群众艺术馆（上海市非物质文化遗产保护中心）,121.430968,31.19205788,121.4199111,31.1876785
378,江南丝竹,传统音乐,新增项目,江苏省太仓市,太仓市文化馆,121.1366315,31.46138254,121.1254177,31.457478
379,江南丝竹,传统音乐,扩展项目,浙江省杭州市,杭州艺术学校,120.1646111,30.32135271,120.1533983,30.31783426
380,海州五大宫调,传统音乐,新增项目,江苏省连云港市,连云港市民俗博物馆（连云港市非物质文化遗产博物馆、连云港市非物质文化遗产保护中心、连云港市山海文化生态保护中心）,119.1851625,34.61146416,119.1730938,34.60622238
381,嵊州吹打,传统音乐,新增项目,浙江省嵊州市,嵊州市文化旅游产业发展中心（嵊州市非物质文化遗产保护中心、嵊州市越剧文化生态保护区服务中心）,120.832403,29.591258,120.8218489,29.58759219
382,舟山锣鼓,传统音乐,新增项目,浙江省舟山市,舟山市定海区非物质文化遗产保护中心,122.1136008,30.02546238,122.1026398,30.02205265
383,十番音乐（闽西客家十番音乐）,传统音乐,新增项目,福建省龙岩市,福建省龙岩市艺术馆,117.0234476,25.08121984,117.0121262,25.07775801
384,十番音乐（茶亭十番音乐）,传统音乐,新增项目,福建省福州市,福州市台江区文化馆,119.3107472,26.06162671,119.299445,26.05859418
385,十番音乐（楚州十番锣鼓）,传统音乐,扩展项目,江苏省淮安市,淮安市淮安区文化馆,119.1124266,33.55656647,119.1002159,33.55218843
386,十番音乐（邵伯锣鼓小牌子）,传统音乐,扩展项目,江苏省江都市,扬州市江都区邵伯古镇传统文化传承发展中心,119.5121332,32.52548811,119.5004822,32.52128565
387,十番音乐（楼塔细十番）,传统音乐,扩展项目,浙江省杭州市,杭州市萧山区楼塔细十番协会,120.2704706,30.18751122,120.2595381,30.18385489
388,十番音乐（遂昌昆曲十番）,传统音乐,扩展项目,浙江省遂昌县,遂昌县非物质文化遗产保护中心,119.2816049,28.58984886,119.2701999,28.58667918
389,十番音乐（黄石惠洋十音）,传统音乐,扩展项目,福建省莆田市,莆田市荔城区文化馆,119.0249271,25.44165173,119.0136951,25.43824614
390,十番音乐（佛山十番）,传统音乐,扩展项目,广东省佛山市,佛山市南海区博物馆,113.1494457,23.03501145,113.1375415,23.03137823
391,十番音乐（海南八音器乐）,传统音乐,扩展项目,海南省海口市,海口市美兰区文化馆,110.3718156,20.04192751,110.3608643,20.0380007
392,鲁西南鼓吹乐,传统音乐,新增项目,山东省嘉祥县,嘉祥县公共文化服务中心（嘉祥县图书馆、嘉祥县文化馆）,116.3953025,35.41217322,116.3831666,35.40597596
393,鲁西南鼓吹乐,传统音乐,扩展项目,山东省菏泽市牡丹区,菏泽市牡丹区文化馆,115.45719,35.25187795,115.4448554,35.24589934
394,鲁西南鼓吹乐,传统音乐,扩展项目,山东省巨野县,巨野县文化馆,116.0989439,35.40178303,116.08655,35.3962118
395,鲁西南鼓吹乐,传统音乐,扩展项目,山东省单县,单县文化馆,116.1306636,34.78671857,116.1184417,34.78159058
396,板头曲,传统音乐,新增项目,河南省南阳市,南阳市群众艺术馆（南阳市非物质文化遗产保护中心）,112.5379622,32.99541326,112.5256467,32.991399
397,宜昌丝竹,传统音乐,新增项目,湖北省宜昌市夷陵区,宜昌市夷陵区文化馆,111.3346235,30.78555001,111.3223368,30.7819069
398,枝江民间吹打乐,传统音乐,新增项目,湖北省枝江市,枝江市文化馆,111.741013,30.43836094,111.7288131,30.43467388
399,广东音乐,传统音乐,新增项目,广东省广州市,广东音乐曲艺团有限公司,114.0624321,22.56858043,114.0507505,22.56563359
400,广东音乐,传统音乐,新增项目,广东省台山市,广东省台山市文化馆,112.8004448,22.25792347,112.7888863,22.25447494
401,潮州音乐,传统音乐,新增项目,广东省潮州市,潮州市文化馆,116.6323974,23.66009992,116.6215672,23.65658055
402,潮州音乐,传统音乐,新增项目,广东省汕头市,汕头市潮阳区文化馆,116.607347,23.2658566,116.5965105,23.26281395
403,广东汉乐,传统音乐,新增项目,广东省大埔县,大埔县文化馆,116.6854989,24.35034848,116.6744542,24.34740379
404,吹打（接龙吹打）,传统音乐,新增项目,重庆市巴南区,重庆市巴南区接龙镇文化体育服务中心,106.7939894,29.2514889,106.7836028,29.24814478
405,吹打（金桥吹打）,传统音乐,新增项目,重庆市万盛区,重庆市万盛经济技术开发区文化馆,106.929864,28.95918102,106.9195431,28.95613919
406,吹打（广西八音）,传统音乐,扩展项目,广西壮族自治区玉林市,玉林市玉州区文化馆,110.16075,22.63200201,110.149803,22.62844564
407,梁平癞子锣鼓,传统音乐,新增项目,重庆市梁平县,重庆市梁平区文化遗产保护中心,107.7775531,30.65923889,107.7666209,30.65550673
408,土家族打溜子,传统音乐,新增项目,湖南省湘西土家族苗族自治州,湘西土家族苗族自治州非物质文化遗产保护中心,109.7455766,28.3173691,109.7342679,28.3150904
409,土家族打溜子,传统音乐,扩展项目,湖北省五峰土家族自治县,五峰土家族自治县文化馆,111.08549,30.17976916,111.0733134,30.17635964
410,土家族打溜子,传统音乐,扩展项目,湖北省鹤峰县,鹤峰县文化馆（鹤峰县非物质文化遗产保护中心）,110.0833417,29.93849688,110.0717492,29.93503898
411,河北鼓吹乐,传统音乐,新增项目,河北省永年县,邯郸市永年区文化馆,114.5040315,36.78806502,114.4916979,36.78156225
412,河北鼓吹乐,传统音乐,新增项目,河北省抚宁县,秦皇岛市抚宁区文化馆,119.2548621,39.88554066,119.2422124,39.87828336
413,晋南威风锣鼓,传统音乐,新增项目,山西省临汾市,临汾市群众艺术馆,111.3829341,35.62611838,111.3701479,35.6199579
414,绛州鼓乐,传统音乐,新增项目,山西省新绛县,山西绛州鼓乐艺术团,112.5198479,37.9868465,112.5068369,37.98051042
415,上党八音会,传统音乐,新增项目,山西省晋城市,晋城市文化馆（晋城市书画院、晋城市美术馆）,112.8774339,35.49237771,112.8647821,35.48711336
416,冀中笙管乐（屈家营音乐会）,传统音乐,新增项目,河北省固安县,固安县文物和非物质文化遗产所（固安县博物馆）,116.30542,39.44448486,116.2929865,39.43712642
417,冀中笙管乐（高洛音乐会）,传统音乐,新增项目,河北省涞水县,涞水县文化馆,115.7325673,39.40029217,115.719784,39.39345571
418,冀中笙管乐（高桥音乐会）,传统音乐,新增项目,河北省霸州市,霸州市文化馆,116.3949473,39.12035843,116.3824092,39.11292788
419,冀中笙管乐（胜芳音乐会）,传统音乐,新增项目,河北省霸州市,霸州市文化馆,116.3949473,39.12035843,116.3824092,39.11292788
420,冀中笙管乐（白庙村音乐会）,传统音乐,扩展项目,北京市大兴区,北京市大兴区文化馆,116.3453227,39.73772205,116.3325566,39.73074815
421,冀中笙管乐（雄县古乐）,传统音乐,扩展项目,河北省雄县,雄县文化馆,116.1146014,39.00018012,116.1017978,38.99343216
422,冀中笙管乐（小冯村音乐会）,传统音乐,扩展项目,河北省固安县,固安县文物和非物质文化遗产所（固安县博物馆）,116.30542,39.44448486,116.2929865,39.43712642
423,冀中笙管乐（张庄音乐会）,传统音乐,扩展项目,河北省霸州市,霸州市文化馆,116.3949473,39.12035843,116.3824092,39.11292788
424,冀中笙管乐（军卢村音乐会）,传统音乐,扩展项目,河北省廊坊市安次区,安次区文化馆,116.683192,39.51989509,116.6707399,39.51292854
425,冀中笙管乐（东张务音乐会）,传统音乐,扩展项目,河北省廊坊市安次区,安次区文化馆,116.683192,39.51989509,116.6707399,39.51292854
426,冀中笙管乐（南响口梵呗音乐会）,传统音乐,扩展项目,河北省廊坊市安次区,安次区文化馆,116.683192,39.51989509,116.6707399,39.51292854
427,冀中笙管乐（里东庄音乐老会）,传统音乐,扩展项目,河北省文安县,河北省文安县文化馆,116.4660808,38.87741983,116.4534497,38.87083885
428,冀中笙管乐（辛安庄民间音乐会）,传统音乐,扩展项目,河北省任丘市,任丘市文化馆,116.0912782,38.69203213,116.0785117,38.6853693
429,冀中笙管乐（安新县圈头村音乐会）,传统音乐,扩展项目,河北省安新县,安新县非物质文化遗产保护协会,115.9424263,38.9417343,115.9301635,38.93481318
430,冀中笙管乐（东韩村拾幡古乐）,传统音乐,扩展项目,河北省易县,易县文化馆,115.5074712,39.35648697,115.4946214,39.34976363
431,冀中笙管乐（子位吹歌）,传统音乐,扩展项目,河北省定州市,定州市文化馆,114.9922319,38.52540486,114.9797269,38.51872392
432,铜鼓十二调,传统音乐,新增项目,贵州省镇宁布依族苗族自治县,镇宁布依族苗族自治县文化馆,105.7765834,26.06382908,105.7665453,26.06137778
433,铜鼓十二调,传统音乐,新增项目,贵州省贞丰县,贞丰县文化馆,105.646828,25.39750504,105.63709,25.39474433
434,西安鼓乐,传统音乐,新增项目,陕西省,陕西省艺术研究院,108.9518237,34.29788611,108.9407494,34.2932256
435,蓝田普化水会音乐,传统音乐,新增项目,陕西省蓝田县,蓝田县文化馆,109.3297516,34.1591761,109.3181932,34.15423999
436,回族民间器乐,传统音乐,新增项目,宁夏回族自治区,宁夏回族自治区文化馆（宁夏回族自治区非物质文化遗产保护中心、宁夏回族自治区展览馆）,106.1937689,38.48762126,106.1829152,38.48086093
437,文水鈲子,传统音乐,新增项目,山西省文水县,文水鈲子艺术研究协会,,,,
438,智化寺京音乐,传统音乐,新增项目,北京市,首都博物馆,116.3488218,39.912174,116.336043,39.90518431
439,五台山佛乐,传统音乐,新增项目,山西省五台县,五台县文化馆（五台县美术馆）,113.2614511,38.73418159,113.2482206,38.72742316
440,千山寺庙音乐,传统音乐,新增项目,辽宁省鞍山市,鞍山市文化旅游发展促进中心,123.0078514,41.12493258,122.995955,41.11662032
441,苏州玄妙观道教音乐,传统音乐,新增项目,江苏省苏州市,苏州市道教协会,120.9917751,31.40435937,120.9809701,31.40028214
442,武当山宫观道乐,传统音乐,新增项目,湖北省十堰市,十堰市群众艺术馆,110.7888571,32.64609178,110.7770625,32.64212663
443,新疆维吾尔木卡姆艺术（十二木卡姆）,传统音乐,新增项目,新疆维吾尔自治区,新疆维吾尔自治区艺术研究所（新疆维吾尔自治区非物质文化遗产保护研究中心）,87.61915799,43.79617115,87.60992592,43.7887459
444,新疆维吾尔木卡姆艺术（吐鲁番木卡姆）,传统音乐,新增项目,新疆维吾尔自治区鄯善县,鄯善县文化馆,90.21717412,42.86597874,90.20861496,42.85844582
445,新疆维吾尔木卡姆艺术（哈密木卡姆）,传统音乐,新增项目,新疆维吾尔自治区哈密地区,哈密市非物质文化遗产保护中心,93.50841972,42.85393383,93.50031384,42.84625521
446,新疆维吾尔木卡姆艺术（刀郎木卡姆）,传统音乐,新增项目,新疆维吾尔自治区麦盖提县,麦盖提县文化馆,77.61600386,38.90449622,77.60698831,38.89867502
447,南音,传统音乐,新增项目,福建省泉州市,泉州市艺术馆（泉州市闽南文化生态保护中心、泉州市非物质文化遗产保护中心）,118.6210026,24.91951738,118.6099932,24.91685721
448,南音,传统音乐,新增项目,福建省厦门市,厦门市南乐团,118.0956852,24.4665189,118.0842913,24.46285179
449,泉州北管,传统音乐,新增项目,福建省泉州市,泉港北管传承保护中心,118.922433,25.13965039,118.9115233,25.13626724
450,陕北民歌,传统音乐,新增项目,陕西省榆林市,榆林市公共文化服务中心（榆林市博物馆、榆林市图书馆、榆林市文化馆）,109.7384041,38.26443594,109.726238,38.25822319
451,陕北民歌,传统音乐,新增项目,陕西省延安市,延安市文化文艺中心（延安市群众艺术馆）,109.5138171,36.61174428,109.5018633,36.60599089
452,昌黎民歌,传统音乐,新增项目,河北省昌黎县,昌黎县文化馆,119.1983421,39.72604231,119.1856523,39.71875219
453,高邮民歌,传统音乐,新增项目,江苏省高邮市,高邮市文化馆,119.5006737,32.78670561,119.4888842,32.78254207
454,五河民歌,传统音乐,新增项目,安徽省五河县,五河县文化馆,117.897627,33.14817602,117.8856462,33.14439106
455,大别山民歌,传统音乐,新增项目,安徽省六安市,六安市文化馆（六安市文艺创作研究室）,116.5264097,31.74145082,116.5149193,31.73716631
456,徽州民歌,传统音乐,新增项目,安徽省黄山市,黄山市非物质文化遗产保护中心,118.1484195,30.30232896,118.1364468,30.29901303
457,信阳民歌,传统音乐,新增项目,河南省信阳市,信阳市群众艺术馆（信阳市非物质文化遗产保护中心）,114.0845776,32.13266035,114.0721544,32.1288143
458,西坪民歌,传统音乐,新增项目,河南省西峡县,西峡县人民文化馆,111.4803981,33.31331612,111.4679275,33.30864383
459,马山民歌,传统音乐,新增项目,湖北省荆州市荆州区,荆州市荆州区文化馆（荆州市荆州区非物质文化遗产保护中心、荆州市荆州区楚剧传承中心）,112.1936405,30.35917304,112.1814248,30.35540296
460,潜江民歌,传统音乐,新增项目,湖北省潜江市,潜江市非物质文化遗产保护中心,110.6804612,31.75214649,110.6688603,31.74840534
461,吕家河民歌,传统音乐,新增项目,湖北省丹江口市,丹江口市文化馆,111.0913652,32.51453713,111.0790133,32.51062727
462,秀山民歌,传统音乐,新增项目,重庆市秀山土家族苗族自治县,秀山土家族苗族自治县文化馆,108.9976204,28.45256077,108.9867047,28.44997766
463,酉阳民歌,传统音乐,新增项目,重庆市酉阳土家族苗族自治县,酉阳土家族苗族自治县文化馆（酉阳土家族苗族自治县文化生态保护中心、酉阳土家族苗族自治县非物质文化遗产保护中心）,108.7743324,28.84698687,108.7634195,28.84441673
464,镇巴民歌,传统音乐,新增项目,陕西省镇巴县,陕西省镇巴县文化馆,107.9028549,32.54238822,107.892003,32.53858136
465,嘉善田歌,传统音乐,新增项目,浙江省嘉善县,嘉善县文化馆,120.888669,30.82810388,120.878002,30.82475673
466,南坪曲子,传统音乐,新增项目,四川省九寨沟县,九寨沟县文化馆,104.2495467,33.25759151,104.2405066,33.25357482
467,茶山号子,传统音乐,新增项目,湖南省辰溪县,辰溪县文化馆,110.2188759,28.01075131,110.2075341,28.00839179
468,啰啰咚,传统音乐,新增项目,湖北省监利县,监利县文化馆,116.1073529,39.94839892,116.0944206,39.94135362
469,爬山调,传统音乐,新增项目,内蒙古自治区呼和浩特市,武川县文化馆,111.4663264,41.10368528,111.4528673,41.09575422
470,爬山调,传统音乐,新增项目,内蒙古自治区乌拉特前旗,乌拉特前旗文化馆,108.6518395,40.74337103,108.6401537,40.73645403
471,漫瀚调,传统音乐,新增项目,内蒙古自治区准格尔旗,准格尔旗漫瀚调艺术研究所,111.2437837,39.86977107,111.2308345,39.86233159
472,惠东渔歌,传统音乐,新增项目,广东省惠州市,惠东县非物质文化遗产保护中心,114.7121232,22.98270242,114.7010106,22.97922009
473,海门山歌,传统音乐,新增项目,江苏省海门市,海门市文化馆,116.1073529,39.94839892,116.0944206,39.94135362
474,新化山歌,传统音乐,新增项目,湖南省娄底市,新化县梅山蚩尤文化研究发展中心,111.3274115,27.7236268,111.31537,27.72100639
475,姚安坝子腔,传统音乐,新增项目,云南省姚安县,姚安县非物质文化遗产保护中心（姚安县文化艺术团）,101.2485272,25.50977544,101.2405,25.50688916
476,海洋号子（舟山渔民号子）,传统音乐,新增项目,浙江省岱山县,岱山县文化馆（岱山县非物质文化遗产保护中心）,122.211069,30.25251302,122.2003155,30.24915607
477,海洋号子（长岛渔号）,传统音乐,新增项目,山东省长岛县,长岛综合试验区文化文物服务中心,104.103308,30.48344993,104.0941874,30.48022003
478,海洋号子（长海号子）,传统音乐,扩展项目,辽宁省长海县,长海县文化旅游体育事业服务中心,122.5946265,39.27827022,122.5832025,39.27158929
479,海洋号子（象山渔民号子）,传统音乐,扩展项目,浙江省象山县,象山县石浦文化馆,121.9469564,29.20670682,121.9365123,29.20339226
480,江河号子（黄河号子）,传统音乐,新增项目,黄河水利委员会河南黄河河务局,河南省非物质文化遗产保护和智慧化中心,113.6645036,34.74358499,113.6519729,34.73852552
481,江河号子（长江峡江号子）,传统音乐,新增项目,湖北省宜昌市夷陵区,宜昌市夷陵区文化馆,111.3346235,30.78555001,111.3223368,30.7819069
482,江河号子（长江峡江号子）,传统音乐,新增项目,湖北省伍家岗区,宜昌市伍家岗区文化馆,111.3664203,30.64281597,111.3541437,30.63881327
483,江河号子（长江峡江号子）,传统音乐,新增项目,湖北省巴东县,巴东县文化和旅游事业发展中心,110.3475753,31.04806425,110.3358934,31.04456444
484,江河号子（长江峡江号子）,传统音乐,新增项目,湖北省秭归县,秭归县文化馆（县非物质文化遗产保护中心）,110.988274,30.83032233,110.9765224,30.82658718
485,江河号子（酉水船工号子）,传统音乐,新增项目,湖南省保靖县,保靖县非物质文化遗产保护中心,109.6664736,28.70596887,109.6553779,28.70316769
486,码头号子（上海港码头号子）,传统音乐,新增项目,上海市浦东新区,上海市浦东新区人民政府塘桥街道办事处,121.5313888,31.22085746,121.5205082,31.2170491
487,码头号子（上海港码头号子）,传统音乐,新增项目,上海市杨浦区,上海市杨浦区人民政府定海路街道办事处,121.5555596,31.28518505,121.54488,31.28101235
488,森林号子（长白山森林号子）,传统音乐,新增项目,吉林省文学艺术界联合会民间文艺家协会,白山市文化遗产保护中心（白山市博物馆）,126.830179,42.39827189,126.818143,42.38979217
489,森林号子（兴安岭森林号子）,传统音乐,新增项目,黑龙江省伊春市,伊春市群众艺术馆（伊春市非物质文化遗产保护中心）,128.925359,47.73532365,128.9117636,47.72729497
490,搬运号子（梁平抬儿调）,传统音乐,新增项目,重庆市梁平县,重庆市梁平区文化遗产保护中心,107.7775531,30.65923889,107.7666209,30.65550673
491,搬运号子（龙骨坡抬工号子）,传统音乐,新增项目,重庆市巫山县,巫山县文化馆（巫山县艺术团）,109.890916,31.08885918,109.8796515,31.08539912
492,制作号子（竹麻号子）,传统音乐,新增项目,四川省邛崃市,邛崃市文化馆,103.4704811,30.4163986,103.4617404,30.41286761
493,鲁南五大调,传统音乐,新增项目,山东省郯城县,郯城县文化馆,118.3820116,34.61700198,118.3696754,34.61222699
494,鲁南五大调,传统音乐,新增项目,山东省日照市,日照市东港区文化活动与文物保护中心（日照市东港区图书馆、日照市东港区文化馆、日照市东港区博物馆）,119.4842489,35.43837902,119.472038,35.43271933
495,老河口丝弦,传统音乐,新增项目,湖北省老河口市,老河口市群众艺术馆,111.683269,32.3902201,111.6708674,32.38670939
496,蒙古族民歌（科尔沁叙事民歌）,传统音乐,新增项目,内蒙古自治区通辽市,通辽市民族歌舞团,122.272928,43.62874055,122.2609794,43.62008572
497,蒙古族民歌（鄂尔多斯短调民歌）,传统音乐,新增项目,内蒙古自治区鄂尔多斯市,鄂尔多斯市群众艺术馆,109.7965789,39.60837473,109.7844816,39.60108226
498,蒙古族民歌（鄂尔多斯古如歌）,传统音乐,新增项目,内蒙古自治区杭锦旗,杭锦旗文化馆,108.7424129,39.83881577,108.7307763,39.83156152
499,蒙古族民歌（阜新东蒙短调民歌）,传统音乐,新增项目,辽宁省阜新蒙古族自治县,阜新蒙古族自治县文化体育旅游服务中心,121.724127,42.12391808,121.7120685,42.11588159
500,蒙古族民歌（郭尔罗斯蒙古族民歌）,传统音乐,新增项目,吉林省前郭尔罗斯蒙古族自治县,前郭尔罗斯蒙古族自治县草原文化馆,124.1023902,44.60839296,124.089443,44.59999248
501,蒙古族民歌（乌拉特民歌）,传统音乐,扩展项目,内蒙古自治区乌拉特前旗,乌拉特前旗文化馆,108.6518395,40.74337103,108.6401537,40.73645403
502,蒙古族民歌,传统音乐,扩展项目,青海省海西蒙古族藏族自治州,海西州文化馆（海西州非物质文化遗产传承保护中心、 海西州民族文化体育活动中心）,97.37087425,37.3773353,97.36349753,37.37106187
503,蒙古族民歌（和硕特民歌）,传统音乐,扩展项目,内蒙古自治区阿拉善盟阿拉善左旗,阿拉善左旗文化馆,105.6882408,38.84147111,105.6775474,38.83512084
504,蒙古族民歌（新疆温泉县蒙古族短调民歌）,传统音乐,扩展项目,新疆维吾尔自治区博尔塔拉蒙古自治州温泉县,温泉县文化馆,81.03318075,44.9792207,81.02389133,44.97226862
505,鄂温克族民歌（鄂温克叙事民歌）,传统音乐,新增项目,内蒙古自治区鄂温克族自治旗,鄂温克族自治旗文化旅游事业发展中心（鄂温克族自治旗文化馆、鄂温克族自治旗非物质文化遗产保护中心）,119.7633102,49.14375338,119.7496115,49.13545789
506,鄂伦春族民歌（鄂伦春族赞达仁）,传统音乐,新增项目,内蒙古自治区鄂伦春自治旗,鄂伦春自治旗文化馆（鄂伦春自治旗美术馆）,123.7323451,50.59794793,123.7185349,50.59015818
507,鄂伦春族民歌（鄂伦春族赞达仁）,传统音乐,新增项目,黑龙江省大兴安岭地区,大兴安岭地区群众艺术馆,124.138259,50.42823532,124.1240089,50.42089502
508,达斡尔族民歌（达斡尔扎恩达勒）,传统音乐,新增项目,内蒙古自治区莫力达瓦达斡尔族自治旗,莫力达瓦达斡尔族自治旗文化馆（莫力达瓦达斡尔族自治旗非物质文化遗产保护中心）,124.5259351,48.48291224,124.5125433,48.47512797
509,达斡尔族民歌（罕伯岱达斡尔族民歌）,传统音乐,新增项目,黑龙江省齐齐哈尔市,富拉尔基区文旅事业发展中心,123.6365098,47.21550408,123.6234216,47.20750827
510,苗族民歌（湘西苗族民歌）,传统音乐,新增项目,湖南省吉首市,吉首市非物质文化遗产保护中心,109.7044488,28.26749313,109.6933253,28.26473808
511,苗族民歌（苗族飞歌）,传统音乐,新增项目,贵州省雷山县,雷山县非物质文化遗产保护中心,108.0845289,26.38420512,108.073652,26.38165127
512,苗族民歌（苗族飞歌）,传统音乐,扩展项目,贵州省剑河县,剑河县非物质文化遗产保护中心,108.449012,26.73365101,108.4382206,26.73111566
513,苗族民歌,传统音乐,扩展项目,海南省琼中黎族苗族自治县,琼中黎族苗族自治县文化馆,109.8567611,19.05914727,109.8461762,19.05529609
514,苗族民歌,传统音乐,扩展项目,重庆市彭水苗族土家族自治县,彭水苗族土家族自治县文化馆,108.171378,29.29741884,108.1603733,29.29436503
515,瑶族民歌（花瑶呜哇山歌）,传统音乐,新增项目,湖南省隆回县,隆回县非物质文化遗产保护中心,111.0395067,27.11994644,111.0277526,27.1172806
516,瑶族民歌,传统音乐,扩展项目,广东省乳源瑶族自治县,乳源瑶族自治县非物质文化遗产保护中心（乳源瑶族自治县民族文化研究中心）,113.2806389,24.78267106,113.2687541,24.77921702
517,黎族民歌（琼中黎族民歌）,传统音乐,新增项目,海南省琼中黎族苗族自治县,琼中黎族苗族自治县文化馆,109.8567611,19.05914727,109.8461762,19.05529609
518,布依族民歌（好花红调）,传统音乐,新增项目,贵州省惠水县,惠水县文化遗产保护中心,106.6634526,26.13820989,106.6533957,26.13553226
519,彝族民歌（彝族酒歌）,传统音乐,新增项目,云南省武定县,武定县文化馆,102.4087695,25.53382845,102.4006308,25.53082058
520,彝族民歌（彝族山歌）,传统音乐,扩展项目,贵州省盘县,盘州市非物质文化遗产保护中心,104.4785818,25.71565126,104.4696247,25.71287138
521,布朗族民歌（布朗族弹唱）,传统音乐,新增项目,云南省勐海县,勐海县文化馆,100.4491186,21.97339764,100.441488,21.96975175
522,藏族民歌（川西藏族山歌）,传统音乐,新增项目,四川省甘孜藏族自治州,甘孜藏族自治州文化馆,101.9685467,30.05527884,101.9604817,30.05222095
523,藏族民歌（川西藏族山歌）,传统音乐,新增项目,四川省阿坝藏族羌族自治州,阿坝藏族羌族自治州文化馆（阿坝藏族羌族自治州美术馆、阿坝州非物质文化遗产中心）,103.8642845,31.69298081,103.85553,31.68963249
524,藏族民歌（川西藏族山歌）,传统音乐,新增项目,四川省炉霍县,炉霍县文化馆（炉霍县非物质文化遗产保护中心）,100.6836244,31.40418893,100.6759747,31.40024677
525,藏族民歌（玛达咪山歌）,传统音乐,新增项目,四川省九龙县,九龙县文化馆,101.510056,29.01198018,101.5019637,29.00892763
526,藏族民歌（华锐藏族民歌）,传统音乐,新增项目,甘肃省天祝藏族自治县,天祝藏族自治县藏语言文字指导中心,103.1486213,36.97759618,103.1395962,36.97155803
527,藏族民歌（甘南藏族民歌）,传统音乐,新增项目,甘肃省甘南藏族自治州,甘南藏族自治州文化馆（甘南藏族自治州美术馆）,102.9171677,34.99253092,102.9088628,34.98792936
528,藏族民歌（玉树民歌）,传统音乐,新增项目,青海省玉树藏族自治州,玉树藏族自治州文化馆,95.80442258,34.13330007,95.79703996,34.12915943
529,藏族民歌（藏族赶马调）,传统音乐,扩展项目,四川省冕宁县,冕宁县文化馆,102.1835746,28.55529445,102.1753769,28.55293643
530,藏族民歌（班戈昌鲁）,传统音乐,扩展项目,西藏自治区班戈县,西藏那曲市班戈县文化和旅游局,90.01670773,31.39872762,90.00841536,31.39489173
531,藏族民歌（藏族酒曲）,传统音乐,扩展项目,青海省海南藏族自治州,海南藏族自治州文化馆（海南藏族自治州非物质文化遗产传承保护中心）,99.9932659,35.59565485,99.98546061,35.59009979
532,维吾尔族民歌（罗布淖尔维吾尔族民歌）,传统音乐,新增项目,新疆维吾尔自治区尉犁县,尉犁县文化馆,86.2738517,41.34494077,86.26502281,41.33749529
533,维吾尔族民歌,传统音乐,扩展项目,新疆维吾尔自治区伊宁市,伊宁市文化馆,81.33705325,43.9228267,81.3274894,43.91555717
534,维吾尔族民歌,传统音乐,扩展项目,新疆维吾尔自治区库车县,库车县文化馆,116.1073529,39.94839892,116.0944206,39.94135362
535,乌孜别克族埃希来、叶来,传统音乐,新增项目,新疆维吾尔自治区艺术研究所,新疆维吾尔自治区艺术研究所（新疆维吾尔自治区非物质文化遗产保护研究中心）,87.61915799,43.79617115,87.60992592,43.7887459
536,乌孜别克族埃希来、叶来,传统音乐,新增项目,新疆维吾尔自治区伊犁哈萨克自治州,伊犁哈萨克自治州文化艺术研究所,81.33053775,43.92272314,81.32095136,43.91554823
537,乌孜别克族埃希来、叶来,传统音乐,新增项目,新疆维吾尔自治区喀什地区,喀什地区文化馆,76.02179598,39.47540513,76.01215116,39.46932781
538,回族宴席曲,传统音乐,新增项目,青海省门源回族自治县,门源回族自治县文化馆,101.6182907,37.39101177,101.6100232,37.38476362
539,琵琶艺术（瀛洲古调派）,传统音乐,新增项目,上海市崇明县,上海市崇明区文化馆,121.4366623,31.62473009,121.4255792,31.62017078
540,琵琶艺术（浦东派）,传统音乐,新增项目,上海市南汇区,上海市浦东新区文化艺术指导中心（上海市浦东新区群众文化艺术馆、上海市浦东新区电影发行放映管理站）,121.5791111,31.25421403,121.5684499,31.25010378
541,琵琶艺术（平湖派）,传统音乐,新增项目,浙江省平湖市,平湖市非物质文化遗产保护管理中心,121.0225753,30.682241,121.0116042,30.67888233
542,古筝艺术（山东古筝乐）,传统音乐,新增项目,山东省菏泽市,菏泽市文化馆,115.487545,35.23940742,115.4751536,35.23399757
543,古筝艺术（中州筝派）,传统音乐,扩展项目,河南省,河南省文化艺术研究院,113.6707522,34.77654554,113.6581985,34.77154719
544,笙管乐（复州双管乐）,传统音乐,新增项目,辽宁省瓦房店市,瓦房店市文化馆,122.0104353,39.62973483,121.9987495,39.62251782
545,笙管乐（建平十王会）,传统音乐,新增项目,辽宁省建平县,建平县文旅体育和广播电视技术保障服务中心（建平县文物考古研究所）,119.6493804,41.40945551,119.6370172,41.40118223
546,笙管乐（超化吹歌）,传统音乐,新增项目,河南省新密市,新密市文化馆（新密市非物质文化遗产保护中心）,113.3926668,34.54871054,113.3797465,34.54347803
547,津门法鼓（挂甲寺庆音法鼓）,传统音乐,新增项目,天津市河西区,天津市河西区文化馆（天津市河西区非物质文化遗产保护中心）,117.2419608,39.10183221,117.2293254,39.09452106
548,津门法鼓（杨家庄永音法鼓）,传统音乐,新增项目,天津市河西区,天津市河西区文化馆（天津市河西区非物质文化遗产保护中心）,117.2419608,39.10183221,117.2293254,39.09452106
549,津门法鼓（刘园祥音法鼓）,传统音乐,新增项目,天津市北辰区,天津市北辰区辰文故里非遗传承文化促进中心,117.1290942,39.19989773,117.1162879,39.19235394
550,津门法鼓（香塔音乐法鼓）,传统音乐,扩展项目,天津市西青区,天津市西青区杨柳青镇拾肆街村村民委员会,117.0205013,39.13472276,117.0078862,39.12743032
551,锣鼓艺术（汉沽飞镲）,传统音乐,新增项目,天津市汉沽区,天津市滨海新区文化馆,117.469164,38.84620043,117.4563129,38.83905962
552,锣鼓艺术（常山战鼓）,传统音乐,新增项目,河北省正定县,正定县文化馆,114.5698176,38.15925303,114.5574563,38.15288857
553,锣鼓艺术（太原锣鼓）,传统音乐,新增项目,山西省太原市,太原市文化馆（太原市文化旅游事业发展中心）,112.5170072,37.86487542,112.5039887,37.85853569
554,锣鼓艺术（泗泾十锦细锣鼓）,传统音乐,新增项目,上海市松江区,上海市松江区泗泾镇社区党群服务中心（上海市松江区泗泾镇文化体育服务中心）,121.287267,31.12201388,121.2762654,31.11824104
555,锣鼓艺术（大铜器）,传统音乐,新增项目,河南省西平县,西平县人民文化馆,114.0266085,33.37959115,114.0142316,33.3749952
556,锣鼓艺术（大铜器）,传统音乐,新增项目,河南省郏县,郏县文化馆,113.2196062,33.97748629,113.2067436,33.97322118
557,锣鼓艺术（开封盘鼓）,传统音乐,新增项目,河南省开封市,开封市文化馆,114.3843757,34.81447003,114.3719823,34.80902752
558,锣鼓艺术（宜昌堂调）,传统音乐,新增项目,湖北省宜昌市,宜昌市群众艺术馆（宜昌市非物质文化遗产保护中心）,111.2940332,30.70147155,111.2818165,30.69817777
559,锣鼓艺术（韩城行鼓）,传统音乐,新增项目,陕西省韩城市,韩城市文化馆,110.4716659,35.48438805,110.4595599,35.47894367
560,锣鼓艺术（云胜锣鼓）,传统音乐,扩展项目,山西省原平市,原平云胜锣鼓艺术社,112.7174871,38.7364759,112.7044291,38.72986073
561,锣鼓艺术（中州大鼓）,传统音乐,扩展项目,河南省新乡县,新乡县文化馆,113.7826714,35.19722329,113.7700247,35.19153297
562,锣鼓艺术（鄂州牌子锣）,传统音乐,扩展项目,湖北省鄂州市,鄂州市群众艺术馆,114.8984061,30.40246508,114.8867625,30.39946819
563,锣鼓艺术（小河锣鼓）,传统音乐,扩展项目,重庆市渝北区,重庆市渝北区文化遗产保护中心,106.6352989,29.71733487,106.6249923,29.71446113
564,锣鼓艺术（软槌锣鼓）,传统音乐,扩展项目,山西省万荣县,万荣县软槌锣鼓研究会,110.8445761,35.4211088,110.8324762,35.41578453
565,锣鼓艺术（花镲锣鼓）,传统音乐,扩展项目,江西省丰城市,丰城市博物馆,115.7902342,28.19920221,115.7787607,28.19631313
566,锣鼓艺术（大铜器）,传统音乐,扩展项目,河南省遂平县,遂平县文化馆,114.0172341,33.15833047,114.0049322,33.15378229
567,锣鼓艺术（老河口锣鼓架子）,传统音乐,扩展项目,湖北省老河口市,老河口市群众艺术馆,111.683269,32.3902201,111.6708674,32.38670939
568,锣鼓艺术（八音锣鼓）,传统音乐,扩展项目,广东省佛山市顺德区,佛山市顺德区杏坛镇文化站,113.1583072,22.79550717,113.1464517,22.79188961
569,锣鼓艺术（临清驾鼓）,传统音乐,扩展项目,山东省聊城市临清市,临清市文化馆,115.7263017,36.83241322,115.7138894,36.82626154
570,朝鲜族洞箫音乐,传统音乐,新增项目,吉林省延吉市,延吉市文化馆,129.4474509,42.89689239,129.4337463,42.88843072
571,朝鲜族洞箫音乐,传统音乐,新增项目,吉林省珲春市,珲春市文化馆,130.3764491,42.8860714,130.3626405,42.87773597
572,洞箫音乐（高陵洞箫）,传统音乐,扩展项目,陕西省高陵县,西安市高陵区文化馆,109.096096,34.53656197,109.0845269,34.53138142
573,土家族咚咚喹,传统音乐,新增项目,湖南省龙山县,龙山县非物质文化遗产保护中心,125.1573471,42.90766472,125.1445778,42.89881989
574,哈萨克六十二阔恩尔,传统音乐,新增项目,新疆维吾尔自治区伊犁哈萨克自治州,伊犁哈萨克自治州歌舞团,81.33053775,43.92272314,81.32095136,43.91554823
575,维吾尔族鼓吹乐,传统音乐,新增项目,新疆维吾尔自治区,新疆维吾尔自治区艺术研究所（新疆维吾尔自治区非物质文化遗产保护研究中心）,87.61915799,43.79617115,87.60992592,43.7887459
576,洞经音乐（文昌洞经古乐）,传统音乐,新增项目,四川省梓潼县,梓潼县文化馆,105.1699335,31.64418474,105.1599676,31.64045932
577,洞经音乐（妙善学女子洞经音乐）,传统音乐,新增项目,云南省通海县,通海县文化馆（通海县非物质文化遗产保护中心）,102.76368,24.1112203,102.7557035,24.10818121
578,洞经音乐（邛都洞经音乐） ,传统音乐,扩展项目,四川省西昌市 ,西昌市文化馆（西昌市美术馆）,102.2740835,27.89809977,102.2660913,27.89549266
579,芦笙音乐（侗族芦笙）,传统音乐,新增项目,湖南省通道侗族自治县,通道侗族自治县文化遗产保护中心,109.7904455,26.16421986,109.7794296,26.16131466
580,芦笙音乐（苗族芒筒芦笙）,传统音乐,新增项目,贵州省丹寨县,丹寨县非物质文化遗产保护中心,107.7955135,26.20442117,107.7848083,26.20176656
581,布依族勒尤,传统音乐,新增项目,贵州省贞丰县,贞丰县文化馆,105.646828,25.39750504,105.63709,25.39474433
582,布依族勒尤,传统音乐,新增项目,贵州省兴义市,兴义市文化馆,104.9116834,25.08220228,104.9027414,25.07923504
583,布依族勒尤,传统音乐,新增项目,贵州省镇宁布依族苗族自治县,镇宁布依族苗族自治县文化馆,105.7765834,26.06382908,105.7665453,26.06137778
584,藏族扎木聂弹唱,传统音乐,新增项目,青海省海南藏族自治州,海南藏族自治州文化馆（海南藏族自治州非物质文化遗产传承保护中心）,99.9932659,35.59565485,99.98546061,35.59009979
585,工布扎念博咚,传统音乐,扩展项目,西藏自治区林芝市,林芝市巴宜区文化和旅游局,94.36847798,29.64178416,94.36076425,29.63864404
586,哈萨克族冬布拉艺术,传统音乐,新增项目,新疆维吾尔自治区伊犁哈萨克自治州,伊犁哈萨克自治州文化艺术研究所,81.33053775,43.92272314,81.32095136,43.91554823
587,柯尔克孜族库姆孜艺术,传统音乐,新增项目,新疆维吾尔自治区克孜勒苏柯尔克孜自治州,阿合奇县玛纳斯研究中心,86.21115699,44.2926737,86.20195467,44.28574791
588,柯尔克孜族库姆孜艺术,传统音乐,新增项目,新疆维吾尔自治区乌恰县,乌恰县文化馆,75.26533363,39.72512359,75.25579254,39.71870587
589,蒙古族绰尔,传统音乐,新增项目,新疆维吾尔自治区阿勒泰地区,阿勒泰市文化馆（阿勒泰市非物质文化遗产保护中心、阿勒泰市美术馆）,88.13781829,47.83635102,88.1278207,47.82927237
590,黎族竹木器乐,传统音乐,新增项目,海南省保亭黎族苗族自治县,保亭黎族苗族自治县文化馆,109.7093115,18.64395404,109.6986834,18.63961537
591,黎族竹木器乐,传统音乐,新增项目,海南省五指山市,五指山市文化馆,,,,
592,口弦音乐,传统音乐,新增项目,四川省布拖县,布拖县文化馆,102.815683,27.71937208,102.8076484,27.71685186
593,口弦音乐,传统音乐,扩展项目,四川省北川羌族自治县,北川羌族自治县文化馆,104.4782559,31.61619903,104.4690347,31.61255515
594,吟诵调（常州吟诵）,传统音乐,新增项目,江苏省常州市,常州市文化馆,119.9961186,31.78911456,119.9849288,31.7848014
595,佛教音乐（天宁寺梵呗唱诵）,传统音乐,新增项目,江苏省常州市,常州天宁禅寺,119.9754665,31.78137581,119.9642444,31.77744911
596,佛教音乐（鱼山梵呗）,传统音乐,新增项目,山东省东阿县,聊城市鱼山梵呗非物质文化遗产保护传承中心,116.2119716,36.22505283,116.1997472,36.21922047
597,佛教音乐（大相国寺梵乐）,传统音乐,新增项目,河南省开封市,开封大相国寺,114.3610701,34.79808453,114.3487576,34.79256942
598,佛教音乐（直孔噶举派音乐）,传统音乐,新增项目,西藏自治区墨竹工卡县,西藏拉萨市墨竹工卡县直孔替寺管理委员会,92.21769546,30.10945519,92.21007659,30.10652422
599,佛教音乐（拉卜楞寺佛殿音乐道得尔）,传统音乐,新增项目,甘肃省夏河县,夏河县拉卜楞寺院管理委员会,102.5147499,35.19926265,102.5065203,35.19398709
600,佛教音乐（青海藏族唱经调）,传统音乐,新增项目,青海省兴海县,兴海县文化馆,99.9932659,35.59565485,99.98546061,35.59009979
601,佛教音乐（北武当庙寺庙音乐）,传统音乐,新增项目,宁夏回族自治区平罗县,平罗县文化馆,106.5282083,38.91666647,106.5171777,38.91023381
602,佛教音乐（楞严寺寺庙音乐）,传统音乐,扩展项目,山西省左云县,左云县文化馆,112.7094633,40.01962345,112.6962837,40.01239933
603,佛教音乐（塔尔寺花架音乐）,传统音乐,扩展项目,青海省湟中县,青海省湟中县塔尔寺管理委员会,101.5745412,36.49359717,101.5661797,36.48814283
604,佛教音乐（觉囊梵音）,传统音乐,扩展项目,四川省壤塘县,壤塘县藏洼寺寺庙管理委员会,100.9852564,32.27115262,100.9771843,32.26787326
605,佛教音乐（洋县佛教音乐）,传统音乐,扩展项目,陕西省洋县,洋县文化馆,107.5559717,33.23022853,107.5449345,33.22619594
606,佛教音乐（金山寺水陆法会仪式音乐） ,传统音乐,扩展项目,江苏省镇江市,镇江金山江天禅寺,119.4223174,32.22174371,119.4104183,32.21737483
607,佛教音乐（雄色寺绝鲁） ,传统音乐,扩展项目,西藏自治区曲水县,曲水县文化和旅游局（曲水县文物局）,90.74952389,29.35745321,90.74171642,29.35437315
608,道教音乐（广宗太平道乐）,传统音乐,新增项目,河北省广宗县,广宗县文化馆,115.1496047,37.08045712,115.1368654,37.07414647
609,道教音乐（恒山道乐）,传统音乐,新增项目,山西省阳高县,阳高县文化馆,113.7541595,40.36203316,113.7408825,40.35454268
610,道教音乐（上海道教音乐）,传统音乐,新增项目,上海市道教协会,上海市道教协会,121.239523,31.01299063,121.2285852,31.00918255
611,道教音乐（无锡道教音乐）,传统音乐,新增项目,江苏省无锡市,无锡市道教协会,120.3185833,31.49880973,120.3073911,31.49498761
612,道教音乐（齐云山道场音乐）,传统音乐,新增项目,安徽省休宁县,休宁县齐云山道教协会,118.1999214,29.79084384,118.1882841,29.78695267
613,道教音乐（崂山道教音乐）,传统音乐,新增项目,山东省青岛市崂山区,青岛崂山太清宫,120.682695,36.14554692,120.6713971,36.13974607
614,道教音乐（泰山道教音乐）,传统音乐,新增项目,山东省泰安市,泰安市道教协会,117.1160808,36.26190632,117.1035738,36.25533729
615,道教音乐（胶东全真道教音乐）,传统音乐,新增项目,山东省烟台市,烟台市文化馆（烟台市非物质文化遗产保护中心、烟台大剧院运营监督管理服务中心）,121.4012286,37.54238729,121.3893936,37.53562255
616,道教音乐（腊山道教音乐）,传统音乐,新增项目,山东省东平县,东平县非物质文化遗产保护协会,116.4775942,35.94190802,116.4653454,35.9361214
617,道教音乐（海南斋醮科仪音乐）,传统音乐,新增项目,海南省定安县,定安县文化发展中心,110.3454647,19.67374969,110.3345484,19.66983693
618,道教音乐（成都道教音乐）,传统音乐,新增项目,四川省成都市,成都市道教协会,104.0475112,30.6662625,104.0386556,30.66241896
619,道教音乐（白云山道教音乐）,传统音乐,新增项目,陕西省佳县,佳县文化馆（佳县公共文化活动中心、佳县文艺创作研究室）,110.4982106,38.02649199,110.4860401,38.01985964
620,道教音乐（清水道教音乐）,传统音乐,新增项目,甘肃省清水县,清水县文化馆,106.1514843,34.75931496,106.1406457,34.75462631
621,道教音乐（东岳观道教音乐）,传统音乐,扩展项目,浙江省平阳县,平阳县非物质文化遗产保护中心,120.5698109,27.6698582,120.5593545,27.66733487
622,道教音乐（澳门道教科仪音乐）,传统音乐,扩展项目,澳门特别行政区,澳门道教协会,113.5494636,22.19291958,113.537895,22.18973221
623,道教音乐（花张蒙道教音乐） ,传统音乐,扩展项目,河北省定州市,定州市文化馆,114.9922319,38.52540486,114.9797269,38.51872392
624,道教音乐（茅山道教音乐） ,传统音乐,扩展项目,江苏省句容市,句容市茅山道院,119.3218709,31.78821572,119.3100481,31.78421924
625,道教音乐（苍南正一派科仪音乐） ,传统音乐,扩展项目,浙江省苍南县,苍南县玉音乐团,120.4335951,27.52306679,120.4226556,27.52042078
626,道教音乐（龙虎山正一天师道道教音乐） ,传统音乐,扩展项目,江西省鹰潭市,鹰潭市道文化研究会,117.0755754,28.26578706,117.0637264,28.26323407
627,道教音乐（全真道堂科仪音乐） ,传统音乐,扩展项目,香港特别行政区 ,蓬瀛仙馆,,,,
628,凤阳民歌,传统音乐,新增项目,安徽省滁州市,凤阳县文化馆,117.5672248,32.8734415,117.5552265,32.86967966
629,九江山歌,传统音乐,新增项目,江西省九江县,九江市柴桑区文化馆,115.8960388,29.61353104,115.8846343,29.610296
630,利川灯歌,传统音乐,新增项目,湖北省利川市,利川市文化旅游事业发展中心,108.9424806,30.29720344,108.9316572,30.29387059
631,天门民歌,传统音乐,新增项目,湖北省天门市,天门市群众艺术馆,113.1742593,30.65367897,113.1618172,30.64971817
632,临高渔歌,传统音乐,新增项目,海南省临高县,临高县文化馆,109.697443,19.91947477,109.6868288,19.91531063
633,弥渡民歌,传统音乐,新增项目,云南省弥渡县,弥渡县文化馆,100.4937487,25.35299991,100.4860092,25.35015546
634,青海汉族民间小调,传统音乐,新增项目,青海省西宁市,西宁市文化馆,101.7844502,36.6233847,101.7760673,36.61728064
635,阿里郎,传统音乐,新增项目,吉林省延边朝鲜族自治州,延边文化艺术研究中心（延边非物质文化遗产保护中心）,128.9062787,43.12082653,128.8936054,43.11226333
636,哈萨克族民歌,传统音乐,新增项目,新疆维吾尔自治区伊犁哈萨克自治州,伊犁哈萨克自治州文化艺术研究所,81.33053775,43.92272314,81.32095136,43.91554823
637,塔吉克族民歌,传统音乐,新增项目,新疆维吾尔自治区塔什库尔干塔吉克自治县,新疆塔什库尔干塔吉克自治县文化馆,75.23909018,37.78590462,75.22966911,37.77978842
638,茅山号子,传统音乐,新增项目,江苏省兴化市,兴化市关注文化传播中心,119.8575141,32.91782421,119.8461132,32.91378591
639,弦索乐（菏泽弦索乐）,传统音乐,新增项目,山东省菏泽市,菏泽市文化馆,115.487545,35.23940742,115.4751536,35.23399757
640,纳西族白沙细乐,传统音乐,新增项目,云南省丽江市古城区,古城区非物质文化遗产保护管理中心,100.2259295,26.88149889,100.2183356,26.87887747
641,伽倻琴艺术,传统音乐,新增项目,吉林省延吉市,延边文化艺术研究中心（延边非物质文化遗产保护中心）,128.9062787,43.12082653,128.8936054,43.11226333
642,京族独弦琴艺术,传统音乐,新增项目,广西壮族自治区东兴市,东兴市文化馆,107.9788135,21.55583949,107.9684931,21.55246909
643,哈萨克族库布孜,传统音乐,新增项目,新疆维吾尔自治区伊犁哈萨克自治州,伊犁哈萨克自治州歌舞团,81.33053775,43.92272314,81.32095136,43.91554823
644,土家族民歌,传统音乐,新增项目,湖南省湘西土家族苗族自治州,湘西土家族苗族自治州非物质文化遗产保护中心,109.7455766,28.3173691,109.7342679,28.3150904
645,土家族民歌,传统音乐,新增项目,贵州省沿河土家族自治县 ,沿河土家族自治县文化馆,108.5001833,28.56277942,108.4894986,28.55985623
646,渔歌（洞庭渔歌）,传统音乐,新增项目,湖南省岳阳市,岳阳市岳阳楼区文化馆（岳阳市岳阳楼区美术馆）,113.1364807,29.37799504,113.1240356,29.37454826
647,渔歌（汕尾渔歌）,传统音乐,新增项目,广东省汕尾市,汕尾市城区文化馆,115.379399,22.76862299,115.3679167,22.76559402
648,渔歌（嵊泗渔歌）,传统音乐,扩展项目,浙江省舟山市嵊泗县,嵊泗县文化馆,122.4630016,30.73727447,122.4520922,30.73379473
649,西岭山歌,传统音乐,新增项目,四川省大邑县 ,大邑县文化馆,103.5226715,30.57719025,103.5140123,30.57407492
650,旬阳民歌,传统音乐,新增项目,陕西省旬阳县 ,旬阳县文化馆,116.1073529,39.94839892,116.0944206,39.94135362
651,撒拉族民歌,传统音乐,新增项目,青海省循化撒拉族自治县 ,循化撒拉族自治县文化馆,102.4953853,35.85666722,102.4871854,35.85066277
652,锡伯族民歌,传统音乐,新增项目,新疆维吾尔自治区察布查尔锡伯自治县 ,察布查尔锡伯自治县文化馆,81.15739556,43.84268891,81.14790138,43.835349
653,凌云壮族七十二巫调音乐,传统音乐,新增项目,广西壮族自治区凌云县 ,凌云县文化馆,106.5684157,24.35401524,106.5585755,24.35075899
654,毕摩音乐,传统音乐,新增项目,四川省美姑县 ,美姑县文化馆,103.1385858,28.33401962,103.1299681,28.33160596
655,剑川白曲,传统音乐,新增项目,云南省大理白族自治州 ,剑川县文化馆,99.91928999,26.53901497,99.91179725,26.53698891
656,阿斯尔,传统音乐,新增项目,内蒙古自治区镶黄旗 ,镶黄旗文体旅游事业发展中心,113.8545054,42.23766129,113.8411311,42.22983818
657,莆仙十音八乐,传统音乐,新增项目,福建省莆田市涵江区 ,福建省莆田市涵江区文化馆,119.1241818,25.46357756,119.1127076,25.46041714
658,蒙古族汗廷音乐,传统音乐,新增项目,内蒙古自治区阿鲁科尔沁旗 ,阿鲁科尔沁旗文化馆,120.0726139,43.87795341,120.0596457,43.86993955
659,浏阳文庙祭孔音乐,传统音乐,新增项目,湖南省浏阳市,浏阳市文化馆（浏阳市非物质文化遗产保护中心）,113.6349647,28.14691575,113.6230886,28.14414207
660,潮尔（蒙古族弓弦乐）,传统音乐,新增项目,内蒙古自治区通辽市 ,通辽市科尔沁潮尔协会,122.262457,43.62871249,122.2504538,43.62022789
661,蒙古族托布秀尔音乐,传统音乐,新增项目,新疆维吾尔自治区博尔塔拉蒙古自治州,博尔塔拉蒙古自治州歌舞团,82.07291476,44.91219641,82.06321746,44.90497897
662,赫哲族嫁令阔,传统音乐,新增项目,黑龙江省双鸭山市饶河县,饶河县非物质文化遗产保护中心,134.0204689,46.80418274,134.006533,46.79580832
663,崇明山歌,传统音乐,新增项目,上海市崇明区,上海市崇明区文化馆,121.4366623,31.62473009,121.4255792,31.62017078
664,南闸民歌,传统音乐,新增项目,江苏省淮安市淮安区,淮安市淮安区文化馆,119.1124266,33.55656647,119.1002159,33.55218843
665,嘉禾伴嫁歌,传统音乐,新增项目,湖南省郴州市嘉禾县,嘉禾县文化馆,112.373869,25.58984899,112.3617912,25.58686289
666,疍歌,传统音乐,新增项目,海南省三亚市,三亚市群众艺术馆,109.5339322,18.29255179,109.5233687,18.28835464
667,仡佬族民歌,传统音乐,新增项目,贵州省铜仁市石阡县,石阡县文化馆,108.2304639,27.51972206,108.2198036,27.51682254
668,独龙族民歌,传统音乐,新增项目,云南省怒江傈僳族自治州贡山独龙族怒族自治县,云南省贡山独龙族怒族自治县文化馆,98.67162619,27.74705149,98.66479909,27.74453389
669,门巴族萨玛民歌,传统音乐,新增项目,西藏自治区山南市,西藏错那县文化局（文物局）,91.96375006,27.99700427,91.9562285,27.99479402
670,甘州小调,传统音乐,新增项目,甘肃省张掖市甘州区,甘州区非物质文化遗产保护中心,100.4845577,38.93478147,100.4763785,38.92832999
671,阿柔逗曲,传统音乐,新增项目,青海省海北藏族自治州祁连县,祁连县文化馆（祁连县图书馆、祁连县民族博物馆、祁连县非物质文化遗产传承保护中心）,100.2576909,38.18652257,100.249602,38.18044811
672,两当号子,传统音乐,新增项目,甘肃省陇南市两当县,两当县文化馆,106.3139994,33.91466169,106.303463,33.90993464
673,鼓吹乐（海龙鼓吹乐）,传统音乐,新增项目,吉林省通化市梅河口市,梅河口市文化馆,125.717497,42.51833692,125.7047936,42.51038326
674,鼓吹乐（武家鼓吹乐棚）,传统音乐,新增项目,黑龙江省大庆市林甸县,林甸县文化馆,124.883378,47.19006737,124.8702363,47.18228847
675,朝鲜族奚琴艺术,传统音乐,新增项目,吉林省延边朝鲜族自治州延吉市,延吉市朝鲜族非物质文化遗产保护中心,129.5205201,42.91271701,129.5070845,42.90435018
676,二胡艺术（江南孙氏二胡艺术）,传统音乐,新增项目,上海市奉贤区,上海市奉贤区文化馆（上海市奉贤区非物质文化遗产保护和传承中心）,121.4824986,30.92275766,121.4714961,30.91899633
677,俄罗斯族巴扬艺术,传统音乐,新增项目,新疆维吾尔自治区伊犁哈萨克自治州伊宁市,伊宁市文化馆,81.33705325,43.9228267,81.3274894,43.91555717
678,壮族天琴艺术,传统音乐,新增项目,广西壮族自治区崇左市,崇左市群众艺术馆,107.3703142,22.37812666,107.3596316,22.37497759
679,阿数瑟,传统音乐,新增项目,云南省临沧市镇康县,镇康县非物质文化遗产保护中心,98.83187122,23.76831548,98.82490512,23.76542772
680,天坛神乐署中和韶乐,传统音乐,新增项目,北京市东城区,北京市天坛公园管理处,116.4248746,39.88478582,116.4121943,39.87718326
681,宣抚司礼仪乐舞,传统音乐,新增项目,云南省普洱市孟连傣族拉祜族佤族自治县,孟连傣族拉祜族佤族自治县文化馆,99.59096283,22.33530762,99.58371245,22.33222989
682,京西太平鼓,传统舞蹈,新增项目,北京市门头沟区,北京市门头沟区公共文化中心（北京市门头沟区文化旅游产业促进中心）,116.1113655,39.89181797,116.0984192,39.88475536
683,京西太平鼓（石景山太平鼓）,传统舞蹈,扩展项目,北京市石景山区,北京市石景山区非物质文化遗产保护中心,116.2296127,39.91135381,116.2169451,39.90447118
684,京西太平鼓（怪村太平鼓）,传统舞蹈,扩展项目,北京市丰台区,北京市丰台区王佐镇怪村村民委员会,116.1355091,39.80815623,116.1227475,39.80080821
685,秧歌（昌黎地秧歌）,传统舞蹈,新增项目,河北省昌黎县,昌黎县文化馆,119.1983421,39.72604231,119.1856523,39.71875219
686,秧歌（抚顺地秧歌）,传统舞蹈,新增项目,辽宁省抚顺市,抚顺市非物质文化遗产保护中心,123.9643746,41.88596959,123.9522217,41.87744185
687,秧歌（鼓子秧歌）,传统舞蹈,新增项目,山东省商河县,商河县文化馆（商河县京剧团、商河县美术馆）,117.167344,37.32063335,117.1546359,37.31401982
688,秧歌（胶州秧歌）,传统舞蹈,新增项目,山东省胶州市,胶州市文化服务中心,120.0395354,36.27034909,120.0276657,36.2641643
689,秧歌（海阳大秧歌）,传统舞蹈,新增项目,山东省海阳市,海阳市文化馆,121.1848778,36.69586966,121.1734142,36.68928014
690,秧歌（陕北秧歌）,传统舞蹈,新增项目,陕西省绥德县,绥德县文化馆,110.2650506,37.51088767,110.2530721,37.50413231
691,秧歌（济阳鼓子秧歌）,传统舞蹈,扩展项目,山东省济阳县,济阳区文化馆,117.1786947,36.97117019,117.165996,36.96492595
692,秧歌（临县伞头秧歌）,传统舞蹈,扩展项目,山西省临县,临县伞头秧歌艺术协会,110.9984149,37.95721067,110.9859505,37.95031584
693,秧歌（原平凤秧歌）,传统舞蹈,扩展项目,山西省原平市,原平市文化馆（原平市美术馆）,112.7152252,38.73596437,112.7021856,38.72931254
694,秧歌（汾阳地秧歌）,传统舞蹈,扩展项目,山西省汾阳市,汾阳市文化馆,111.7860689,37.27014811,111.7730111,37.26394604
695,秧歌（小红门地秧歌）,传统舞蹈,扩展项目,北京市朝阳区,北京市朝阳区小红门乡（地区）市民活动中心（北京市朝阳区小红门乡（地区）党群活动中心）,116.532385,39.84623152,116.5200957,39.83875596
696,秧歌（乐亭地秧歌）,传统舞蹈,扩展项目,河北省乐亭县,乐亭县文化遗产传承中心,118.9193841,39.43193132,118.9071965,39.42459962
697,秧歌（阳信鼓子秧歌）,传统舞蹈,扩展项目,山东省阳信县,阳信县文化馆,117.5750494,37.62619768,117.5625879,37.61961112
698,秧歌（延庆旱船）,传统舞蹈,扩展项目,北京市延庆县,北京市延庆区博物馆（北京市延庆区文物管理所）,115.9843381,40.47201105,115.9715738,40.46511227
699,秧歌（西码头百忍京秧歌高跷）,传统舞蹈,扩展项目,天津市红桥区,天津市红桥区文化馆（天津市红桥区文化艺术发展中心）,117.160069,39.19005614,117.1471559,39.18297178
700,秧歌（滦州地秧歌）,传统舞蹈,扩展项目,河北省唐山市滦州市,滦州市文化馆,118.7073182,39.74564553,118.6948547,39.73825905
701,秧歌（乌拉满族秧歌）,传统舞蹈,扩展项目,吉林省吉林市,吉林市艺术研究所（吉林市非物质文化遗产保护研究中心）,126.5981215,43.83014247,126.5861045,43.82158068
702,井陉拉花,传统舞蹈,新增项目,河北省井陉县,井陉县文化馆,114.151463,38.03838621,114.1385747,38.03149893
703,龙舞（铜梁龙舞）,传统舞蹈,新增项目,重庆市,重庆市铜梁区文化馆（重庆市铜梁区龙文化发展研究中心、重庆市铜梁区非物质文化遗产中心）,106.0634495,29.85050878,106.0530914,29.84691604
704,龙舞（湛江人龙舞）,传统舞蹈,新增项目,广东省湛江市,湛江人龙舞艺术团,110.3655544,21.27672344,110.3545045,21.27328178
705,龙舞（汕尾滚地金龙）,传统舞蹈,新增项目,广东省汕尾市,陆丰市文化馆,115.6504318,22.95171371,115.6393158,22.94870367
706,龙舞（浦江板凳龙）,传统舞蹈,新增项目,浙江省浦江县,浦江县非物质文化遗产保护中心,119.8984361,29.45869285,119.8875005,29.45516115
707,龙舞（长兴百叶龙）,传统舞蹈,新增项目,浙江省长兴县,长兴县文化馆,119.9113361,31.01464651,119.9002353,31.01089435
708,龙舞（奉化布龙）,传统舞蹈,新增项目,浙江省奉化市,宁波市奉化区文化馆,121.4221378,29.67722784,121.4111297,29.67341434
709,龙舞（泸州雨坛彩龙）,传统舞蹈,新增项目,四川省泸县,泸县文化馆（泸县美术馆）,105.386076,29.15935802,105.3760463,29.15598747
710,龙舞（易县摆字龙灯）,传统舞蹈,扩展项目,河北省易县,易县文化馆,115.5074712,39.35648697,115.4946214,39.34976363
711,龙舞（曲周龙灯）,传统舞蹈,扩展项目,河北省曲周县,曲周县文化馆,114.9556433,36.77957348,114.9435204,36.77312607
712,龙舞（金州龙舞）,传统舞蹈,扩展项目,辽宁省大连市金州区,大连金普新区文化旅游事业服务中心,121.7632979,39.0575973,121.7515693,39.05078483
713,龙舞（舞草龙）,传统舞蹈,扩展项目,上海市松江区,上海市松江区叶榭镇社区党群服务中心（上海市松江区叶榭镇文化体育服务中心）,121.3120174,30.94651413,121.3011326,30.94238279
714,龙舞（骆山大龙）,传统舞蹈,扩展项目,江苏省溧水区,南京市溧水区文化馆,119.0340433,31.65954458,119.0223259,31.65514764
715,龙舞（兰溪断头龙）,传统舞蹈,扩展项目,浙江省兰溪市,兰溪市畲乡风情旅游发展有限公司,119.4610881,29.20860417,119.4493785,29.20556252
716,龙舞（大田板灯龙）,传统舞蹈,扩展项目,福建省大田县,福建省大田县文化馆,117.8542513,25.69695144,117.842986,25.69366411
717,龙舞（高龙）,传统舞蹈,扩展项目,湖北省武汉市汉阳区,武汉市汉阳区文化馆,114.22785,30.56071588,114.2159636,30.55699003
718,龙舞（汝城香火龙）,传统舞蹈,扩展项目,湖南省汝城县,汝城县文化馆,113.6905987,25.5559785,113.6787287,25.55316848
719,龙舞（九龙舞）,传统舞蹈,扩展项目,湖南省平江县,平江县文化馆,113.5890881,28.70962831,113.5769889,28.70733939
720,龙舞（埔寨火龙）,传统舞蹈,扩展项目,广东省丰顺县,丰顺县文化馆,116.1893402,23.76631922,116.1782043,23.76271733
721,龙舞（人龙舞）,传统舞蹈,扩展项目,广东省佛山市,佛山市顺德区杏坛镇文化站,113.1583072,22.79550717,113.1464517,22.79188961
722,龙舞（荷塘纱龙）,传统舞蹈,扩展项目,广东省江门市蓬江区,江门市蓬江区荷塘镇公共服务中心,113.137651,22.65239345,113.1257262,22.64907349
723,龙舞（乔林烟花火龙）,传统舞蹈,扩展项目,广东省揭阳市,揭阳市磐东乔林公益协会,116.3401565,23.56377735,116.3289255,23.5605647
724,龙舞（醉龙）,传统舞蹈,扩展项目,广东省中山市,中山市西区街道宣传文化服务中心（档案馆）,113.4070828,22.50604008,113.395168,22.50238794
725,龙舞（黄龙溪火龙灯舞）,传统舞蹈,扩展项目,四川省双流县,双流县文化馆,103.928744,30.57918307,103.920269,30.57567418
726,龙舞（浦东绕龙灯）,传统舞蹈,扩展项目,上海市浦东新区,上海市浦东新区三林镇文化服务中心,121.5090972,31.15089709,121.4980946,31.14732825
727,龙舞（直溪巨龙）,传统舞蹈,扩展项目,江苏省金坛市,常州市金坛区文化馆,119.590209,31.74842099,119.578697,31.74491504
728,龙舞（碇步龙）,传统舞蹈,扩展项目,浙江省泰顺县,泰顺县非物质文化遗产保护中心（泰顺县廊桥申遗和保护研究中心）,119.7207762,27.56036987,119.7095583,27.55785957
729,龙舞（开化香火草龙）,传统舞蹈,扩展项目,浙江省开化县,开化县非物质文化遗产保护中心,118.4214593,29.14318752,118.4097893,29.13972635
730,龙舞（坎门花龙）,传统舞蹈,扩展项目,浙江省玉环县,玉环市坎门花龙活动中心,121.2670535,28.120105,121.2562702,28.11770804
731,龙舞（龙灯扛阁）,传统舞蹈,扩展项目,山东省临沂市,临沂市河东区文化艺术馆（区画院、区柳琴剧团）,118.4004752,35.08361481,118.388093,35.07825652
732,龙舞（火龙舞）,传统舞蹈,扩展项目,河南省孟州市,孟州市文化馆（孟州市非物质文化遗产保护中心）,112.7879407,34.93232071,112.7753231,34.92698449
733,龙舞（三节龙）,传统舞蹈,扩展项目,湖北省云梦县,云梦县文化馆,113.7695189,31.02965056,113.7573091,31.02556126
734,龙舞（地龙灯）,传统舞蹈,扩展项目,湖北省来凤县,来凤县文化旅游事业发展中心,109.4134948,29.49944357,109.4020471,29.496015
735,龙舞（芷江孽龙）,传统舞蹈,扩展项目,湖南省芷江侗族自治县,芷江侗族自治县文化遗产保护中心,109.6914023,27.44951328,109.6804074,27.4465916
736,龙舞（城步吊龙）,传统舞蹈,扩展项目,湖南省城步苗族自治县,城步苗族自治县文化馆,110.3285371,26.39620322,110.3172772,26.39372662
737,龙舞（香火龙）,传统舞蹈,扩展项目,广东省南雄市,南雄市非物质文化遗产传承保护中心,114.3185789,25.12352654,114.3069724,25.12056552
738,龙舞（六坊云龙舞）,传统舞蹈,扩展项目,广东省中山市,中山市古镇镇宣传文化服务中心（中山市古镇镇档案馆）,113.4773216,22.2717367,113.4654228,22.26877964
739,龙舞（鳌江划大龙）,传统舞蹈,扩展项目,浙江省平阳县,平阳县鳌江大龙文化研究会,120.5651797,27.59903579,120.5547038,27.5965805
740,龙舞（手龙舞）,传统舞蹈,扩展项目,安徽省绩溪县,绩溪县文化馆,118.6014622,30.07737723,118.590112,30.07414088
741,龙舞（潜江草把龙）,传统舞蹈,扩展项目,湖北省潜江市,潜江市非物质文化遗产保护中心,110.6804612,31.75214649,110.6688603,31.74840534
742,龙舞（徽州板凳龙）,传统舞蹈,扩展项目,安徽省黄山市休宁县,休宁县文化馆（休宁县美术馆）,118.1902996,29.79009559,118.1786135,29.78628672
743,龙舞（王贵武龙灯）,传统舞蹈,扩展项目,湖北省黄石市铁山区,黄石市开发区·铁山区文化馆,114.905884,30.20726109,114.894286,30.20432819
744,龙舞（板板龙灯）,传统舞蹈,扩展项目,湖南省张家界市慈利县,慈利县非物质文化遗产保护中心,111.1454713,29.43598673,111.1334166,29.43235426
745,龙舞（安仁板凳龙）,传统舞蹈,扩展项目,四川省达州市,达州市达川区文化馆,107.519687,31.18832787,107.5087811,31.18432076
746,狮舞（徐水舞狮）,传统舞蹈,新增项目,河北省徐水县,保定市徐水区文化馆,115.6807563,39.01469345,115.6683129,39.00756504
747,狮舞（天塔狮舞）,传统舞蹈,新增项目,山西省襄汾县,襄汾县文化馆（襄汾县旅游服务中心、襄汾县美术馆）,111.4804124,36.02127995,111.4676483,36.01496585
748,狮舞（黄沙狮子）,传统舞蹈,新增项目,浙江省临海市,临海市黄沙狮子传习所,121.1515853,28.86404933,121.1406196,28.8612513
749,狮舞（广东醒狮）,传统舞蹈,新增项目,广东省佛山市,佛山市南海区博物馆,113.1494457,23.03501145,113.1375415,23.03137823
750,狮舞（广东醒狮）,传统舞蹈,新增项目,广东省遂溪县,遂溪县文化馆,110.259231,21.38285794,110.2484034,21.37934724
751,狮舞（广东醒狮）,传统舞蹈,新增项目,广东省广州市,广州市番禺区沙湾文化传播有限责任公司,113.3529233,22.91367239,113.3409185,22.91064115
752,狮舞（白纸坊太狮）,传统舞蹈,扩展项目,北京市,北京印钞有限公司,116.3630161,39.88120213,116.3502285,39.87406094
753,狮舞（沧县狮舞）,传统舞蹈,扩展项目,河北省沧县,沧州刘吉舞狮大世界有限责任公司,116.68065,38.21637604,116.668384,38.20986006
754,狮舞（丰城岳家狮）,传统舞蹈,扩展项目,江西省丰城市,丰城剑威学校,115.7170335,28.24519289,115.705456,28.24254496
755,狮舞（小相狮舞）,传统舞蹈,扩展项目,河南省巩义市,巩义市文化和体育事业发展中心（巩义市体育馆、巩义市人民文化馆、巩义市图书馆）,113.0287898,34.74828143,113.0160177,34.74304112
756,狮舞（槐店文狮子）,传统舞蹈,扩展项目,河南省沈丘县,沈丘县回族文狮子文化协会,115.1037567,33.37877234,115.0915264,33.37398927
757,狮舞（席狮舞）,传统舞蹈,扩展项目,广东省梅州市,梅州市梅江区文化馆,116.1205135,24.31564176,116.1091308,24.31252964
758,狮舞（布依族高台狮灯舞）,传统舞蹈,扩展项目,贵州省兴义市,兴义市文化馆,104.9116834,25.08220228,104.9027414,25.07923504
759,狮舞（马桥手狮舞）,传统舞蹈,扩展项目,上海市闵行区,上海市闵行区马桥镇文化体育事业发展中心,121.4114928,31.0761668,121.4003409,31.07218262
760,狮舞（古陂蓆狮、犁狮）,传统舞蹈,扩展项目,江西省信丰县,信丰县文化馆,114.9326012,25.38852282,114.9214056,25.38559603
761,狮舞（青狮）,传统舞蹈,扩展项目,广东省揭阳市,揭阳市孙淑强狮艺武术馆,116.3756098,23.5419044,116.3643882,23.53831933
762,狮舞（松岗七星狮舞）,传统舞蹈,扩展项目,广东省深圳市,深圳市宝安区松岗街道党建服务中心（深圳市宝安区松岗街道人才人事服务中心、深圳市宝安区松岗街道离退休干部活动中心、深圳市宝安区松岗街道社区教育中心、深圳市宝安区松岗街道文化体育中心、深圳市宝安区松岗街道劳动保障服务中心）,,,,
763,狮舞（藤县狮舞）,传统舞蹈,扩展项目,广西壮族自治区藤县,藤县文化馆,110.9300863,23.37844403,110.9189523,23.37546362
764,狮舞（田阳壮族狮舞）,传统舞蹈,扩展项目,广西壮族自治区田阳县,田阳县文化馆,116.1073529,39.94839892,116.0944206,39.94135362
765,狮舞（高台狮舞）,传统舞蹈,扩展项目,重庆市彭水苗族土家族自治县,彭水苗族土家族自治县文化馆,108.171378,29.29741884,108.1603733,29.29436503
766,狮舞（黎川舞白狮）,传统舞蹈,扩展项目,江西省黎川县,黎川县文化馆,116.9197405,27.29908019,116.9084971,27.2965836
767,狮舞（上川黄连胜醒狮舞）,传统舞蹈,扩展项目,广东省深圳市宝安区,深圳市新安上合股份合作公司,113.9096106,22.58465127,113.8982516,22.58157751
768,狮舞（瑶族布袋木狮舞）,传统舞蹈,扩展项目,广东省清远市连州市,连州市文化馆,112.390883,24.78982008,112.3788547,24.78685962
769,花鼓灯（蚌埠花鼓灯）,传统舞蹈,新增项目,安徽省蚌埠市,安徽省花鼓灯歌舞剧院有限责任公司,117.3774579,32.94410361,117.3652131,32.93951503
770,花鼓灯（凤台花鼓灯）,传统舞蹈,新增项目,安徽省凤台县,安徽省凤台县文化馆,116.7348484,32.70712938,116.7230567,32.70319098
771,花鼓灯（颍上花鼓灯）,传统舞蹈,新增项目,安徽省颍上县,颍上县花鼓灯艺术团有限公司,116.261143,32.655698,116.2494044,32.6516635
772,傩舞（南丰跳傩）,传统舞蹈,新增项目,江西省南丰县,南丰跳傩研究保护中心,116.5314035,27.22473352,116.5202983,27.22175829
773,傩舞（婺源傩舞）,传统舞蹈,新增项目,江西省婺源县,婺源县徽剧传习所,117.8672701,29.25485954,117.8557561,29.25158228
774,傩舞（乐安傩舞 ）,传统舞蹈,新增项目,江西省乐安县,江西省乐安县文化馆,115.8466101,27.42706179,115.835223,27.42460802
775,傩舞（寿阳爱社）,传统舞蹈,扩展项目,山西省寿阳县,寿阳县人民文化馆,113.1834102,37.90130761,113.1702331,37.89434847
776,傩舞（祁门傩舞）,传统舞蹈,扩展项目,安徽省祁门县,祁门县芦溪乡为民服务中心,117.5190778,29.70992166,117.5072589,29.70653161
777,傩舞（邵武傩舞）,传统舞蹈,扩展项目,福建省邵武市,邵武市文化馆,117.4983523,27.34565284,117.4867518,27.34259318
778,傩舞（湛江傩舞）,传统舞蹈,扩展项目,广东省湛江市麻章区,湛江市麻章区文化综合服务中心,110.347304,21.26611054,110.3362659,21.26285161
779,傩舞（文县池哥昼）,传统舞蹈,扩展项目,甘肃省文县,文县非物质文化遗产保护中心,104.6895584,32.94960128,104.6802966,32.94595387
780,傩舞（永靖七月跳会）,传统舞蹈,扩展项目,甘肃省永靖县,永靖县文化馆,103.2925075,35.9633303,103.2836897,35.95763046
781,傩舞（浦南古傩）,传统舞蹈,扩展项目,福建省漳州市,漳州市芗城区浦南镇便民服务中心,117.693305,24.63950182,117.6819059,24.63647031
782,傩舞（跳五猖）,传统舞蹈,扩展项目,安徽省郎溪县,梅渚民间文化艺术推进会,119.225466,31.26330349,119.2136584,31.25968266
783,傩舞（萍乡耍傩神）,传统舞蹈,扩展项目,江西省萍乡市,萍乡市文化馆,113.8191662,27.88043871,113.8071342,27.87811582
784,英歌（普宁英歌）,传统舞蹈,新增项目,广东省揭阳市,普宁市文化馆,116.1639223,23.30086216,116.1527867,23.2969934
785,英歌（潮阳英歌）,传统舞蹈,新增项目,广东省汕头市,汕头市潮阳区文化馆,116.607347,23.2658566,116.5965105,23.26281395
786,英歌（甲子英歌）,传统舞蹈,扩展项目,广东省陆丰市,陆丰市甲子英歌文化艺术服务中心,116.0677833,22.88550939,116.056594,22.88196902
787,高跷（高跷走兽）,传统舞蹈,新增项目,山西省稷山县,稷山县文化馆（稷山县美术馆）,111.0110519,35.61087733,110.9988145,35.60478476
788,高跷（海城高跷）,传统舞蹈,新增项目,辽宁省海城市,海城市民间高跷秧歌艺术团,109.1245214,21.48106584,109.1137067,21.47758482
789,高跷（辽西高跷）,传统舞蹈,新增项目,辽宁省锦州市,锦州市太和区教育和文化旅游服务中心,121.1104532,41.11510931,121.098339,41.10692299
790,高跷（苦水高高跷）,传统舞蹈,新增项目,甘肃省永登县,永登县文化馆,103.2636455,36.73709764,103.2547265,36.73136893
791,高跷（盖州高跷）,传统舞蹈,扩展项目,辽宁省盖州市,盖州市文化旅游事业发展服务中心,122.3555913,40.40616746,122.3437051,40.39894144
792,高跷（上口子高跷）,传统舞蹈,扩展项目,辽宁省大洼县,盘锦市文化馆,122.0828179,41.1479878,122.0707919,41.13999541
793,高跷（独杆跷）,传统舞蹈,扩展项目,山东省泰安市,新泰市公共文化服务中心（新泰市文物保护中心、新泰市旅游推广中心）,117.7749717,35.91402245,117.7624442,35.90830316
794,高跷（高抬火轿）,传统舞蹈,扩展项目,河南省沁阳市,沁阳市文化馆（沁阳市非物质文化遗产保护中心）,112.9575169,35.09378573,112.9448919,35.08858787
795,永新盾牌舞,传统舞蹈,新增项目,江西省永新县,永新县文化和旅游发展中心,114.2494149,26.95153726,114.2378695,26.94858387
796,盾牌舞（藤牌舞）,传统舞蹈,扩展项目,浙江省瑞安市,瑞安市非物质文化遗产保护中心,120.6415381,27.78099686,120.6310876,27.77845186
797,翼城花鼓,传统舞蹈,新增项目,山西省翼城县,翼城县人民文化馆,111.7253755,35.74442908,111.7127246,35.73827877
798,泉州拍胸舞,传统舞蹈,新增项目,福建省泉州市,泉州市鲤城区文化馆,118.5947002,24.90776679,118.5837613,24.90473523
799,安塞腰鼓,传统舞蹈,新增项目,陕西省安塞县,延安市安塞区文化文物馆（延安市安塞区非物质文化遗产保护中心）,109.3342547,36.87057882,109.3224028,36.8639362
800,洛川蹩鼓,传统舞蹈,新增项目,陕西省洛川县,洛川县文化馆,109.4351897,35.76534281,109.4233089,35.75909811
801,兰州太平鼓,传统舞蹈,新增项目,甘肃省兰州市,皋兰县太平鼓协会,103.9534642,36.33814215,103.9446023,36.33239145
802,余杭滚灯,传统舞蹈,新增项目,浙江省杭州市余杭区,杭州市临平区文化馆,120.2994343,30.39126473,120.2883384,30.38800028
803,滚灯（奉贤滚灯）,传统舞蹈,扩展项目,上海市奉贤区,上海市奉贤区柘林镇社区党群服务中心（上海市奉贤区柘林镇文化体育服务中心）,121.471992,30.87741701,121.4609762,30.873448
804,滚灯（海盐滚灯）,传统舞蹈,扩展项目,浙江省海盐县,海盐县非物质文化遗产保护中心,120.9575134,30.53336903,120.9469186,30.5295656
805,土家族摆手舞,传统舞蹈,新增项目,湖南省湘西土家族苗族自治州,湘西土家族苗族自治州非物质文化遗产保护中心,109.7455766,28.3173691,109.7342679,28.3150904
806,土家族摆手舞（恩施摆手舞）,传统舞蹈,扩展项目,湖北省来凤县,来凤县文化旅游事业发展中心,109.4134948,29.49944357,109.4020471,29.496015
807,土家族摆手舞（酉阳摆手舞）,传统舞蹈,扩展项目,重庆市酉阳土家族苗族自治县,酉阳土家族苗族自治县文化馆（酉阳土家族苗族自治县文化生态保护中心、酉阳土家族苗族自治县非物质文化遗产保护中心）,108.7743324,28.84698687,108.7634195,28.84441673
808,土家族撒叶儿嗬,传统舞蹈,新增项目,湖北省长阳土家族自治县,长阳土家族自治县民族民间传统文化保护中心,111.2154371,30.48003374,111.2033494,30.47656911
809,土家族撒叶儿嗬,传统舞蹈,扩展项目,湖北省五峰土家族自治县,五峰土家族自治县文化馆,111.08549,30.17976916,111.0733134,30.17635964
810,土家族撒叶儿嗬,传统舞蹈,扩展项目,湖北省巴东县,巴东县文化和旅游事业发展中心,110.3475753,31.04806425,110.3358934,31.04456444
811,土家族撒叶儿嗬,传统舞蹈,扩展项目,湖南省桑植县,桑植县非物质文化遗产保护中心,110.1704134,29.40592322,110.1590587,29.4022265
812,弦子舞（巴塘弦子舞）,传统舞蹈,新增项目,四川省巴塘县,巴塘县文化馆,99.1167267,30.01166171,99.10923304,30.00796985
813,弦子舞（芒康弦子舞）,传统舞蹈,新增项目,西藏自治区,西藏自治区昌都市芒康县文化局,98.59968548,29.68577612,98.59286578,29.68296501
814,弦子舞（玉树依舞）,传统舞蹈,扩展项目,青海省玉树藏族自治州,玉树藏族自治州文化馆,95.80442258,34.13330007,95.79703996,34.12915943
815,锅庄舞（迪庆锅庄舞）,传统舞蹈,新增项目,云南省迪庆藏族自治州,迪庆藏族自治州非物质文化遗产保护中心,99.70952999,27.82518468,99.7020051,27.82249497
816,锅庄舞（昌都锅庄舞）,传统舞蹈,新增项目,西藏自治区,西藏自治区昌都市卡若区文化局,97.17657885,31.14978992,97.16954345,31.14611078
817,锅庄舞（玉树卓舞）,传统舞蹈,新增项目,青海省玉树藏族自治州,玉树藏族自治州文化馆,95.80442258,34.13330007,95.79703996,34.12915943
818,锅庄舞（甘孜锅庄）,传统舞蹈,扩展项目,四川省石渠县,石渠县文化馆,98.10948062,32.98400342,98.10225075,32.98027491
819,锅庄舞（甘孜锅庄）,传统舞蹈,扩展项目,四川省雅江县,雅江县旅游服务中心,101.0205004,30.03756897,101.0124399,30.03418455
820,锅庄舞（甘孜锅庄）,传统舞蹈,扩展项目,四川省新龙县,新龙县文化馆,100.3183982,30.94546953,100.310689,30.94162369
821,锅庄舞（甘孜锅庄）,传统舞蹈,扩展项目,四川省德格县,德格县文化馆,98.58631808,31.81040378,98.57944718,31.80716622
822,锅庄舞（马奈锅庄）,传统舞蹈,扩展项目,四川省金川县,金川县文化馆,102.1961143,38.52195473,102.1875318,38.51579043
823,锅庄舞（称多白龙卓舞）,传统舞蹈,扩展项目,青海省称多县,称多县文化馆,97.11500001,33.3742257,97.10783572,33.36993764
824,锅庄舞（囊谦卓干玛）,传统舞蹈,扩展项目,青海省囊谦县,囊谦县文化馆,96.48691827,32.20919437,96.48006154,32.20525329
825,锅庄舞（甘南锅庄舞）,传统舞蹈,扩展项目,甘肃省甘南藏族自治州,甘南藏族自治州文化馆（甘南藏族自治州美术馆）,102.9171677,34.99253092,102.9088628,34.98792936
826,热巴舞（丁青热巴）,传统舞蹈,新增项目,西藏自治区,丁青县文化和旅游局（丁青县文物局、丁青县文化市场综合行政执法队）,95.62017356,31.41657447,95.61298151,31.41304319
827,热巴舞（那曲比如丁嘎热巴）,传统舞蹈,新增项目,西藏自治区,西藏那曲市比如县文化和旅游局,93.68772949,31.48381044,93.67995073,31.48035806
828,热巴舞,传统舞蹈,扩展项目,云南省迪庆藏族自治州,迪庆藏族自治州非物质文化遗产保护中心,99.70952999,27.82518468,99.7020051,27.82249497
829,日喀则扎什伦布寺羌姆,传统舞蹈,新增项目,西藏自治区,日喀则地区扎什伦布寺管理委员会,88.87854539,29.27102068,88.86994393,29.26849816
830,羌姆（拉康加羌姆）,传统舞蹈,扩展项目,西藏自治区洛扎县,西藏洛扎县文化局,90.866452,28.39163462,90.85884706,28.38925275
831,羌姆（直孔嘎尔羌姆）,传统舞蹈,扩展项目,西藏自治区墨竹工卡县,西藏拉萨市墨竹工卡县直孔替寺管理委员会,92.21769546,30.10945519,92.21007659,30.10652422
832,羌姆（曲德寺阿羌姆）,传统舞蹈,扩展项目,西藏自治区贡嘎县,山南市贡嘎县贡嘎曲德寺管理委员会,90.82036857,29.27082092,90.81263495,29.2679049
833,羌姆（桑耶寺羌姆）,传统舞蹈,扩展项目,西藏自治区扎囊县,山南市桑耶寺管理委员会,91.51048253,29.32929865,91.50257018,29.32659421
834,羌姆（门巴族拔羌姆）,传统舞蹈,扩展项目,西藏自治区错那县,西藏错那县文化局（文物局）,91.96375006,27.99700427,91.9562285,27.99479402
835,羌姆（江洛德庆曲林寺尼姑羌姆）,传统舞蹈,扩展项目,西藏自治区日喀则市,日喀则市桑珠孜区文化和旅游局,88.88771394,29.27024907,88.87915461,29.26763958
836,羌姆（林芝米纳羌姆）,传统舞蹈,扩展项目,西藏自治区林芝县,西藏林芝市巴宜区文化和旅游局,94.36847798,29.64178416,94.36076425,29.63864404
837,苗族芦笙舞（锦鸡舞）,传统舞蹈,新增项目,贵州省丹寨县,丹寨县非物质文化遗产保护中心,107.7955135,26.20442117,107.7848083,26.20176656
838,苗族芦笙舞（鼓龙鼓虎-长衫龙）,传统舞蹈,新增项目,贵州省贵定县,贵定县文物保护站（贵定县非物质文化遗产保护中心）,107.2394501,26.57560569,107.2287189,26.57333919
839,苗族芦笙舞（滚山珠）,传统舞蹈,新增项目,贵州省纳雍县,纳雍县文物（非物质文化）管理所,105.3894866,26.78371723,105.3795383,26.78093722
840,苗族芦笙舞,传统舞蹈,扩展项目,贵州省雷山县,雷山县非物质文化遗产保护中心,108.0845289,26.38420512,108.073652,26.38165127
841,苗族芦笙舞,传统舞蹈,扩展项目,贵州省关岭布依族苗族自治县,关岭布依族苗族自治县文化馆,105.625476,25.94987705,105.6158037,25.94706766
842,苗族芦笙舞,传统舞蹈,扩展项目,贵州省榕江县,榕江县非物质文化遗产保护中心,108.526191,25.93433945,108.5156348,25.93170504
843,苗族芦笙舞,传统舞蹈,扩展项目,贵州省水城县,六盘水市钟山区文化馆,104.8720881,26.58589093,104.8631361,26.58333964
844,苗族芦笙舞,传统舞蹈,扩展项目,贵州省普安县,普安县文化馆,104.9595458,25.78995177,104.9503893,25.78742161
845,朝鲜族农乐舞（乞粒舞）,传统舞蹈,新增项目,辽宁省本溪市,桓仁满族自治县文化旅游发展服务中心（桓仁满族自治县文物管理局）（桓仁满族自治县民俗博物馆）（桓仁满族自治县玉女山博物馆）（桓仁满族自治县文化馆）,,,,
846,朝鲜族农乐舞（象帽舞）,传统舞蹈,新增项目,吉林省延边朝鲜族自治州,汪清县文化馆,129.7847884,43.31627851,129.7710877,43.30807928
847,朝鲜族农乐舞,传统舞蹈,扩展项目,辽宁省铁岭市,铁岭市朝鲜族文化艺术馆,123.8673371,42.29957068,123.8550773,42.29131203
848,木鼓舞（反排苗族木鼓舞）,传统舞蹈,新增项目,贵州省台江县,台江县非物质文化遗产保护中心,119.3205282,26.05852815,119.3091714,26.05565806
849,木鼓舞（沧源佤族木鼓舞）,传统舞蹈,新增项目,云南省沧源佤族自治县,沧源佤族自治县文化馆,99.2527217,23.15287873,99.2454804,23.14937686
850,铜鼓舞（文山壮族、彝族铜鼓舞）,传统舞蹈,新增项目,云南省文山壮族苗族自治州,文山壮族苗族自治州非物质文化遗产保护和艺术研究中心,104.2385438,23.39194413,104.229911,23.38886779
851,铜鼓舞（田林瑶族铜鼓舞）,传统舞蹈,扩展项目,广西壮族自治区田林县,田林县文化馆（田林县广播电视服务中心）,106.2357429,24.29935162,106.2257545,24.29621812
852,铜鼓舞（雷山苗族铜鼓舞）,传统舞蹈,扩展项目,贵州省雷山县,雷山县非物质文化遗产保护中心,108.0845289,26.38420512,108.073652,26.38165127
853,铜鼓舞（南丹勤泽格拉）,传统舞蹈,扩展项目,广西壮族自治区南丹县,南丹县非物质文化遗产保护传承中心,107.5476572,24.98561768,107.5371343,24.98249547
854,傣族孔雀舞,传统舞蹈,新增项目,云南省瑞丽市,瑞丽市文化馆,97.85950312,24.01838627,97.85274617,24.01563834
855,达斡尔族鲁日格勒舞,传统舞蹈,新增项目,内蒙古自治区莫力达瓦达斡尔族自治旗,莫力达瓦达斡尔族自治旗文化馆（莫力达瓦达斡尔族自治旗非物质文化遗产保护中心）,124.5259351,48.48291224,124.5125433,48.47512797
856,达斡尔族鲁日格勒舞,传统舞蹈,新增项目,黑龙江省哈尔滨市,齐齐哈尔市梅里斯达斡尔族区文化馆,123.7595409,47.31554957,123.7461629,47.3074024
857,蒙古族安代舞,传统舞蹈,新增项目,内蒙古自治区库伦旗,库伦旗文化馆（库伦旗非物质文化遗产保护中心）,121.816959,42.74039193,121.8050539,42.73189587
858,湘西苗族鼓舞,传统舞蹈,新增项目,湖南省湘西土家族苗族自治州,湘西土家族苗族自治州非物质文化遗产保护中心,109.7455766,28.3173691,109.7342679,28.3150904
859,湘西土家族毛古斯舞,传统舞蹈,新增项目,湖南省湘西土家族苗族自治州,湘西土家族苗族自治州非物质文化遗产保护中心,109.7455766,28.3173691,109.7342679,28.3150904
860,黎族打柴舞,传统舞蹈,新增项目,海南省三亚市,三亚市群众艺术馆,109.5339322,18.29255179,109.5233687,18.28835464
861,卡斯达温舞,传统舞蹈,新增项目,四川省黑水县,黑水县文化馆,102.9965174,32.06780545,102.9881517,32.06411497
862,?舞,传统舞蹈,新增项目,四川省九寨沟县,九寨沟县文化馆,104.2495467,33.25759151,104.2405066,33.25357482
863,傈僳族阿尺木刮,传统舞蹈,新增项目,云南省维西傈僳族自治县,维西傈僳族自治县非物质文化遗产保护中心,99.29346569,27.1831702,99.28593752,27.18086318
864,彝族葫芦笙舞,传统舞蹈,新增项目,云南省文山壮族苗族自治州,西畴县非物质文化遗产保护中心,104.6785254,23.44327128,104.6697422,23.44005904
865,彝族烟盒舞,传统舞蹈,新增项目,云南省红河哈尼族彝族自治州,石屏县文化馆,102.4927553,23.71376904,102.4849228,23.71013604
866,基诺大鼓舞,传统舞蹈,新增项目,云南省景洪市,景洪市文化馆,100.815074,22.02547018,100.8075236,22.02208154
867,山南昌果卓舞,传统舞蹈,新增项目,西藏自治区,贡嘎县文化局（文物局）,90.99058237,29.29558592,90.98281145,29.29259546
868,卓舞（琼结久河卓舞）,传统舞蹈,扩展项目,西藏自治区琼结县,西藏琼结县文化局（文物局）,91.69010078,29.03086558,91.68252264,29.02790735
869,卓舞（热振曲卓）,传统舞蹈,扩展项目,西藏自治区拉萨市,林周县文化和旅游局（林周县文物局）,91.26950057,29.89873321,91.26153076,29.89585142
870,卓舞（斯马卓）,传统舞蹈,扩展项目,西藏自治区日喀则市,日喀则市桑珠孜区文化和旅游局,88.88771394,29.27024907,88.87915461,29.26763958
871,土族於菟,传统舞蹈,新增项目,青海省同仁县,同仁县文化馆,116.1073529,39.94839892,116.0944206,39.94135362
872,塔吉克族鹰舞,传统舞蹈,新增项目,新疆维吾尔自治区塔什库尔干塔吉克自治县,新疆塔什库尔干塔吉克自治县文化馆,75.23909018,37.78590462,75.22966911,37.77978842
873,鼓舞（花钹大鼓）,传统舞蹈,新增项目,北京市昌平区,北京市昌平区小汤山镇后牛坊村民委员会,116.3942273,40.20164116,116.3815522,40.19394425
874,鼓舞（隆尧招子鼓）,传统舞蹈,新增项目,河北省隆尧县,隆尧县文化馆,114.804091,37.35248798,114.7916341,37.34607476
875,鼓舞（平定武迓鼓）,传统舞蹈,新增项目,山西省平定县,平定县文化馆（平定县美术馆）,113.640291,37.80338105,113.6275064,37.79652699
876,鼓舞（大奏鼓）,传统舞蹈,新增项目,浙江省温岭市,温岭市石塘镇里箬村股份经济合作社,121.597515,28.26448113,121.5870381,28.26193044
877,鼓舞（陈官短穗花鼓）,传统舞蹈,新增项目,山东省广饶县,广饶县文化馆,118.4250277,37.05269043,118.4126015,37.04581008
878,鼓舞（柳林花鼓）,传统舞蹈,新增项目,山东省冠县,冠县文化图书馆,115.4493958,36.49024323,115.4369025,36.48361893
879,鼓舞（花鞭鼓舞）,传统舞蹈,新增项目,山东省商河县,商河县文化馆（商河县京剧团、商河县美术馆）,117.167344,37.32063335,117.1546359,37.31401982
880,鼓舞（八卦鼓舞）,传统舞蹈,新增项目,山东省栖霞市,栖霞市文化馆,118.8897999,32.13423175,118.8782505,32.13058683
881,鼓舞（横山老腰鼓）,传统舞蹈,新增项目,陕西省横山县,榆林市横山区文化馆（榆林市横山区文物保护所）,109.2991955,37.96849858,109.2872481,37.96184409
882,鼓舞（宜川胸鼓）,传统舞蹈,新增项目,陕西省宜川县,宜川县文化馆,110.1754131,36.05639744,110.1635035,36.05010105
883,鼓舞（凉州攻鼓子）,传统舞蹈,新增项目,甘肃省武威市,凉州区文化馆,102.6403385,37.94054393,102.6320951,37.93432195
884,鼓舞（武山旋鼓舞）,传统舞蹈,新增项目,甘肃省武山县,武山县文化馆,104.8974284,34.7276691,104.8880911,34.72277954
885,鼓舞（万荣花鼓）,传统舞蹈,扩展项目,山西省万荣县,万荣县文化馆,110.8445761,35.4211088,110.8324762,35.41578453
886,鼓舞（土沃老花鼓）,传统舞蹈,扩展项目,山西省沁水县,沁水县文化馆,112.193333,35.69455176,112.18059,35.68839638
887,鼓舞（稷山高台花鼓）,传统舞蹈,扩展项目,山西省稷山县,稷山县安福高台花鼓演艺中心,110.9894146,35.61040357,110.9772407,35.60449156
888,鼓舞（乌拉陈汉军旗单鼓舞）,传统舞蹈,扩展项目,吉林省吉林市,吉林市艺术研究所（吉林市非物质文化遗产保护研究中心）,126.5981215,43.83014247,126.5861045,43.82158068
889,鼓舞（辽西太平鼓）,传统舞蹈,扩展项目,辽宁省葫芦岛市,绥中县文化旅游事务服务中心,120.3545855,40.32936115,120.3425994,40.32158099
890,鼓舞（四筒鼓舞）,传统舞蹈,扩展项目,云南省昭通市昭阳区,昭通市昭阳区文化馆,103.7209471,27.34763003,103.7123556,27.34513384
891,鼓舞（彝族花鼓舞）,传统舞蹈,扩展项目,云南省玉溪市峨山彝族自治县,峨山彝族自治县文艺创作室（峨山彝族自治县文化遗产保护传承中心）,102.4125645,24.17477424,102.4044286,24.17168868
892,麒麟舞,传统舞蹈,新增项目,河北省黄骅市,黄骅市文化馆,117.3555131,38.37847084,117.3427408,38.37136656
893,麒麟舞,传统舞蹈,新增项目,河南省兰考县,兰考县人民文化馆,114.8374484,34.84857873,114.8254905,34.84325958
894,麒麟舞,传统舞蹈,新增项目,广东省海丰县,海丰县文化馆（海丰县非物质文化遗产保护中心）,115.3420045,22.97391291,115.330655,22.97029761
895,麒麟舞（麒麟采八宝）,传统舞蹈,扩展项目,山西省侯马市,侯马市文化馆（市公共图书馆、市美术馆）,111.3783966,35.62536482,111.3656369,35.61915643
896,麒麟舞（睢县麒麟舞）,传统舞蹈,扩展项目,河南省睢县,睢县人民文化馆（睢县非物质文化遗产保护中心）,115.0743052,34.43255248,115.0620446,34.42736069
897,麒麟舞（坂田永胜堂舞麒麟）,传统舞蹈,扩展项目,广东省深圳市,深圳市龙岗区坂田街道公共事务中心,114.0842808,22.62548516,114.0726064,22.62237084
898,麒麟舞（大船坑舞麒麟）,传统舞蹈,扩展项目,广东省深圳市,深圳市龙华区大浪办事处大船坑麒麟协会,114.009152,22.66482498,113.9977278,22.66133237
899,麒麟舞（樟木头舞麒麟）,传统舞蹈,扩展项目,广东省东莞市,东莞市樟木头镇文化服务中心（东莞市樟木头镇体育管理服务中心）,114.0897189,22.92076967,114.0780469,22.91747453
900,麒麟舞（西贡坑口客家舞麒麟）,传统舞蹈,扩展项目,香港特别行政区,香港西贡坑口区传统客家麒麟协会,114.374167,22.31062589,114.3628258,22.30699462
901,竹马（东坝大马灯）,传统舞蹈,新增项目,江苏省高淳县,南京市高淳区文化馆,118.8844734,31.33554574,118.8729398,31.3319434
902,竹马（邳州跑竹马）,传统舞蹈,新增项目,江苏省邳州市,邳州市文化馆,117.9810831,34.34561069,117.9690572,34.34066745
903,竹马（蒋塘马灯舞）,传统舞蹈,扩展项目,江苏省溧阳市,溧阳市公共文化体育中心,119.491506,31.42210229,119.4797983,31.41813626
904,竹马（淳安竹马）,传统舞蹈,扩展项目,浙江省淳安县,淳安县博物馆（淳安县文物保护管理所、淳安县非物质文化遗产保护中心）,119.0521358,29.61746533,119.0405574,29.61352934
905,灯舞（青田鱼灯舞）,传统舞蹈,新增项目,浙江省青田县,青田县非物质文化遗产研究保护中心,120.2965733,28.14548756,120.2856878,28.14303152
906,灯舞（东至花灯舞）,传统舞蹈,新增项目,安徽省东至县,东至县文化馆,117.0274715,30.10135824,117.0157479,30.097647
907,灯舞（莆田九鲤灯舞）,传统舞蹈,新增项目,福建省莆田市,莆田市荔城区黄石镇和平村村民委员会,119.1002094,25.38713208,119.0887243,25.38407556
908,灯舞（鲤鱼灯舞）,传统舞蹈,新增项目,江西省吉安县,吉安县文化馆（吉安县非物质文化遗产保护中心）,114.9116067,27.0466187,114.9002298,27.04448461
909,灯舞（苏家作龙凤灯舞）,传统舞蹈,新增项目,河南省博爱县,焦作市苏家作龙凤灯舞保护协会,113.160321,35.13405657,113.1474479,35.12822104
910,灯舞（沙头角鱼灯舞）,传统舞蹈,新增项目,广东省深圳市,深圳市盐田区沙溪沙头角鱼灯舞艺术服务中心,114.2409612,22.56231853,114.2296917,22.55885097
911,灯舞（无为鱼灯）,传统舞蹈,扩展项目,安徽省无为县,无为县文化馆,117.367732,32.94395408,117.3555208,32.93932314
912,灯舞（上舍化龙灯）,传统舞蹈,扩展项目,浙江省安吉县,安吉县梅溪镇上舍村股份经济合作社,119.8704384,30.71366458,119.859354,30.70991608
913,灯舞（青田百鸟灯舞）,传统舞蹈,扩展项目,浙江省青田县,青田县非物质文化遗产研究保护中心,120.2965733,28.14548756,120.2856878,28.14303152
914,灯舞（郧阳凤凰灯舞）,传统舞蹈,扩展项目,湖北省十堰市郧阳区,十堰市郧阳区文化馆,110.8256293,32.83676619,110.8137283,32.83322747
915,灯舞（吉水鳌鱼灯）,传统舞蹈,扩展项目,江西省吉安市吉水县,吉水县文化馆,115.1384229,27.21698797,115.1266452,27.21444836
916,灯舞（五虾闹鲇）,传统舞蹈,扩展项目,湖北省荆州市,荆州市群众艺术馆（荆州市艺术研究所）,112.2075691,30.35777142,112.1954043,30.35395253
917,沧州落子,传统舞蹈,新增项目,河北省南皮县,南皮县文化馆,116.7111126,38.04653286,116.6987092,38.04019943
918,十八蝴蝶,传统舞蹈,新增项目,浙江省永康市,永康市民间艺术表演协会,120.0545507,28.89420397,120.0433234,28.89135566
919,火老虎,传统舞蹈,新增项目,安徽省凤台县,安徽省凤台县文化馆,116.7348484,32.70712938,116.7230567,32.70319098
920,商羊舞,传统舞蹈,新增项目,山东省鄄城县,鄄城县文化馆,115.5483046,35.52776369,115.5362082,35.52188413
921,跑帷子,传统舞蹈,新增项目,河南省汤阴县,汤阴县文化馆,114.3340146,35.82212397,114.3215129,35.81615687
922,官会响锣,传统舞蹈,新增项目,河南省项城市,项城市文化馆（项城市非物质文化遗产保护中心）,114.881514,33.47300744,114.8696758,33.46884295
923,肉连响,传统舞蹈,新增项目,湖北省利川市,利川市文化旅游事业发展中心,108.9424806,30.29720344,108.9316572,30.29387059
924,禾楼舞,传统舞蹈,新增项目,广东省郁南县,郁南县文化图书和博物馆,111.5415538,23.24017404,111.5299029,23.23725525
925,蜈蚣舞,传统舞蹈,新增项目,广东省汕头市澄海区,汕头市澄海区文化馆,116.7792326,23.4715645,116.7682142,23.46786434
926,翻山铰子,传统舞蹈,新增项目,四川省平昌县,平昌县文化馆,107.1042425,31.57098772,107.0930401,31.56726655
927,靖边跑驴,传统舞蹈,新增项目,陕西省靖边县,靖边县公共文化服务中心（靖边县文化馆、靖边县书画研究院）,108.8056589,37.60108914,108.794091,37.59470489
928,查玛,传统舞蹈,新增项目,内蒙古自治区阿拉善盟,阿拉善左旗文化馆,105.6882408,38.84147111,105.6775474,38.83512084
929,朝鲜族鹤舞,传统舞蹈,新增项目,吉林省延边朝鲜族自治州,安图县文化馆（安图县文化中心）,128.9116263,43.11396363,128.8989146,43.10550153
930,鹤舞（三灶鹤舞）,传统舞蹈,扩展项目,广东省珠海市,珠海市金湾区三灶镇文化服务中心（珠海市金湾区三灶镇老干部活动中心）,113.358132,22.05514698,113.3461932,22.05205077
931,朝鲜族长鼓舞,传统舞蹈,新增项目,吉林省图们市,图们市文化馆,129.8503815,42.9742835,129.8371274,42.9655013
932,瑶族长鼓舞,传统舞蹈,新增项目,湖南省江华瑶族自治县,江华瑶族自治县文化馆,111.5817229,25.18790687,111.5701022,25.18484605
933,瑶族长鼓舞,传统舞蹈,新增项目,广东省连南瑶族自治县,连南瑶族自治县文化馆,112.2935173,24.73154858,112.2817049,24.72846901
934,瑶族长鼓舞,传统舞蹈,新增项目,广西壮族自治区富川瑶族自治县,富川瑶族自治县文化馆,111.2826964,24.82414693,111.2709993,24.82114044
935,瑶族长鼓舞（小长鼓舞）,传统舞蹈,扩展项目,广东省连山壮族瑶族自治县,连山壮族瑶族自治县文化馆,112.0862452,24.57484542,112.0743525,24.57122995
936,瑶族长鼓舞（黄泥鼓舞）,传统舞蹈,扩展项目,广西壮族自治区金秀瑶族自治县,金秀瑶族自治县文化馆,110.1967274,24.13579136,110.1856809,24.13252419
937,傣族象脚鼓舞,传统舞蹈,新增项目,云南省潞西市,芒市文化馆（芒市非物质文化遗产保护中心）,98.59041919,24.43919716,98.58370664,24.43666079
938,傣族象脚鼓舞,传统舞蹈,新增项目,云南省西双版纳傣族自治州,西双版纳傣族自治州文化馆,100.800947,22.00278598,100.7933658,21.99934249
939,羌族羊皮鼓舞,传统舞蹈,新增项目,四川省汶川县,汶川县文化馆,103.5875857,31.47830316,103.5790788,31.47454631
940,毛南族打猴鼓舞,传统舞蹈,新增项目,贵州省平塘县,平塘县文学艺术研究所（平塘县非物质文化遗产保护中心）,107.3295666,25.82820171,107.3187523,25.82540878
941,瑶族猴鼓舞,传统舞蹈,新增项目,贵州省荔波县,荔波县文化馆,107.9049672,25.43047107,107.8945776,25.42738249
942,高山族拉手舞,传统舞蹈,新增项目,福建省华安县,福建省华安县文化馆,117.5405856,25.01006773,117.5291247,25.00731162
943,得荣学羌,传统舞蹈,新增项目,四川省得荣县,得荣县文化馆,99.2929842,28.71878005,99.28540261,28.71634723
944,甲搓,传统舞蹈,新增项目,四川省盐源县,盐源县文化馆,101.5149844,27.42835719,101.5069537,27.42554959
945,博巴森根,传统舞蹈,新增项目,四川省理县,理县文化馆,103.1735114,31.44255044,103.1648865,31.4387189
946,彝族铃铛舞,传统舞蹈,新增项目,贵州省赫章县,赫章县文化馆,104.7103229,27.1187761,104.7012569,27.11657189
947,彝族打歌,传统舞蹈,新增项目,云南省巍山彝族回族自治县,巍山彝族回族自治县文化馆,100.3176826,25.23535666,100.3100762,25.23197534
948,彝族跳菜,传统舞蹈,新增项目,云南省南涧彝族自治县,南涧彝族自治县文化馆（南涧彝族自治县文物管理所、南涧彝族自治县非物质文化遗产保护中心）,100.529408,25.05345567,100.5218532,25.05060236
949,彝族老虎笙,传统舞蹈,新增项目,云南省双柏县,双柏县文化馆,101.648407,24.69489853,101.6406136,24.69173779
950,彝族左脚舞,传统舞蹈,新增项目,云南省牟定县,牟定县文化馆,101.5491705,25.31663323,101.5412704,25.31358891
951,乐作舞,传统舞蹈,新增项目,云南省红河县,红河县文化馆,102.4275506,23.37448874,102.41946,23.37131238
952,彝族三弦舞（阿细跳月）,传统舞蹈,新增项目,云南省弥勒县,弥勒市文化馆,103.4214891,24.41798223,103.4129064,24.41466501
953,彝族三弦舞（撒尼大三弦）,传统舞蹈,新增项目,云南省石林彝族自治县,石林彝族自治县阿诗玛文化传承与保护中心（石林彝族自治县阿诗玛文化研究所、石林彝族自治县非物质文化遗产保护中心）,103.2782799,24.75961011,103.2698675,24.7568237
954,纳西族热美蹉,传统舞蹈,新增项目,云南省丽江市古城区,古城区非物质文化遗产保护管理中心,100.2259295,26.88149889,100.2183356,26.87887747
955,布朗族蜂桶鼓舞,传统舞蹈,新增项目,云南省双江拉祜族佤族布朗族傣族自治县,双江拉祜族佤族布朗族傣族自治县文化馆,99.83413098,23.4798365,99.82675349,23.47638968
956,普米族搓蹉,传统舞蹈,新增项目,云南省兰坪白族普米族自治县,兰坪白族普米族自治县非物质文化遗产保护中心,99.42328467,26.4592079,99.41549844,26.45686315
957,拉祜族芦笙舞,传统舞蹈,新增项目,云南省澜沧拉祜族自治县,澜沧拉祜族自治县文化馆,99.93858828,22.56183192,99.93124921,22.55892896
958,宣舞（古格宣舞）,传统舞蹈,新增项目,西藏自治区札达县,札达县文化旅游和体育局,79.80932321,31.48534307,79.80089625,31.48170348
959,宣舞（普堆巴宣舞）,传统舞蹈,新增项目,西藏自治区墨竹工卡县,墨竹工卡县文化和旅游局（墨竹工卡县文物局）,91.74261464,29.85409148,91.73479809,29.85122094
960,宣舞（札达卡尔玛宣舞）,传统舞蹈,扩展项目,西藏自治区阿里地区,阿里地区群众艺术馆,80.11277692,32.50686602,80.10398462,32.50358179
961,拉萨囊玛,传统舞蹈,新增项目,西藏自治区拉萨市,拉萨市城关区娘热民间艺术有限公司,91.12665742,29.70338277,91.11855086,29.70022031
962,堆谐（拉孜堆谐）,传统舞蹈,新增项目,西藏自治区拉孜县,拉孜县文化和旅游局（拉孜县文物局）,87.64364732,29.08750968,87.63476021,29.08499684
963,堆谐（甘孜踢踏）,传统舞蹈,扩展项目,四川省甘孜县,甘孜县文化馆,100.0047357,31.62964487,99.99695007,31.62602682
964,谐钦（拉萨纳如谐钦）,传统舞蹈,新增项目,西藏自治区拉萨市城关区,拉萨市文化局,91.17845426,29.65948788,91.17048328,29.65624482
965,谐钦（南木林土布加谐钦）,传统舞蹈,新增项目,西藏自治区南木林县,南木林县文化和旅游局,89.10570421,29.68793804,89.09662072,29.68491869
966,谐钦（尼玛乡谐钦）,传统舞蹈,扩展项目,西藏自治区班戈县,西藏那曲市班戈县文化和旅游局,90.01670773,31.39872762,90.00841536,31.39489173
967,阿谐（达布阿谐）,传统舞蹈,新增项目,西藏自治区比如县,西藏那曲市比如县文化和旅游局,93.68772949,31.48381044,93.67995073,31.48035806
968,嘎尔,传统舞蹈,新增项目,西藏自治区,西藏自治区群众艺术馆（西藏自治区非物质文化遗产保护中心）,91.13558604,29.653275,91.12745671,29.65022207
969,芒康三弦舞,传统舞蹈,新增项目,西藏自治区芒康县,西藏自治区昌都市芒康县文化局,98.59968548,29.68577612,98.59286578,29.68296501
970,定日洛谐,传统舞蹈,新增项目,西藏自治区定日县,定日县文化和旅游局,87.12959774,28.66395198,87.12064636,28.66107705
971,旦嘎甲谐,传统舞蹈,新增项目,西藏自治区萨嘎县,萨嘎县文化和旅游局,85.2398257,29.33465969,85.23106182,29.33179154
972,廓孜,传统舞蹈,新增项目,西藏自治区曲水县,曲水县文化和旅游局（曲水县文物局）,90.74952389,29.35745321,90.74171642,29.35437315
973,多地舞,传统舞蹈,新增项目,甘肃省舟曲县,舟曲县文化馆,104.37749,33.79081497,104.3682213,33.78627527
974,巴郎鼓舞,传统舞蹈,新增项目,甘肃省卓尼县,卓尼县文化馆,103.5136158,34.59491643,103.5046766,34.59055848
975,藏族螭鼓舞,传统舞蹈,新增项目,青海省循化撒拉族自治县,循化撒拉族自治县文化馆,102.4953853,35.85666722,102.4871854,35.85066277
976,则柔（尚尤则柔）,传统舞蹈,新增项目,青海省贵德县,贵德县人民文化馆,101.4424487,36.04303086,101.4337683,36.03722895
977,蒙古族萨吾尔登,传统舞蹈,新增项目,新疆维吾尔自治区和静县,和静县东归文化馆,86.40787826,42.32552356,86.39882185,42.31777331
978,萨吾尔登,传统舞蹈,扩展项目,新疆维吾尔自治区博湖县,博湖县非物质文化遗产保护中心,86.63846915,41.98643036,86.62982342,41.97900051
979,萨吾尔登,传统舞蹈,扩展项目,内蒙古自治区阿拉善盟额济纳旗,额济纳旗文化馆,101.0725833,41.95866538,101.0638762,41.95073532
980,锡伯族贝伦舞,传统舞蹈,新增项目,新疆维吾尔自治区察布查尔锡伯自治县,察布查尔锡伯自治县文化馆,81.15739556,43.84268891,81.14790138,43.835349
981,维吾尔族赛乃姆,传统舞蹈,新增项目,新疆维吾尔自治区哈密地区,哈密市非物质文化遗产保护中心,93.50841972,42.85393383,93.50031384,42.84625521
982,维吾尔族赛乃姆,传统舞蹈,新增项目,新疆维吾尔自治区莎车县,莎车县文化馆,77.25243671,38.42015675,77.24308798,38.41435801
983,赛乃姆（若羌赛乃姆）,传统舞蹈,扩展项目,新疆维吾尔自治区若羌县,若羌县文化馆,88.17532444,39.02899104,88.16600989,39.02260089
984,赛乃姆（且末赛乃姆）,传统舞蹈,扩展项目,新疆维吾尔自治区且末县,且末县文化馆,85.53578997,38.14896431,85.52689945,38.1430237
985,赛乃姆（库尔勒赛乃姆）,传统舞蹈,扩展项目,新疆维吾尔自治区库尔勒市,库尔勒市文化馆,86.16501085,41.74156492,86.15603641,41.73383553
986,赛乃姆（伊犁赛乃姆）,传统舞蹈,扩展项目,新疆维吾尔自治区伊宁县,伊宁县文化馆（伊宁县文化艺术中心）,81.33705325,43.9228267,81.3274894,43.91555717
987,赛乃姆（库车赛乃姆）,传统舞蹈,扩展项目,新疆维吾尔自治区库车县,库车县文化馆,116.1073529,39.94839892,116.0944206,39.94135362
988,赛乃姆（和田赛乃姆）,传统舞蹈,扩展项目,新疆维吾尔自治区于田县,于田县文化馆,81.68378291,36.86295414,81.67451823,36.85748639
989,跳马伕,传统舞蹈,新增项目,江苏省如东县,如东县文化馆,121.205542,32.34044208,121.1945664,32.33606791
990,仗鼓舞（桑植仗鼓舞）,传统舞蹈,新增项目,湖南省桑植县,桑植县非物质文化遗产保护中心,110.1704134,29.40592322,110.1590587,29.4022265
991,南县地花鼓,传统舞蹈,新增项目,湖南省南县,南县文化馆,112.4186292,29.37498951,112.4063381,29.37149769
992,跳花棚,传统舞蹈,新增项目,广东省化州市,化州市文化馆,110.6472617,21.67060276,110.6365087,21.66702647
993,老古舞,传统舞蹈,新增项目,海南省白沙黎族自治县,海南省白沙黎族自治县文化馆,109.4596283,19.22965449,109.4488688,19.22499297
994,跳曹盖,传统舞蹈,新增项目,四川省平武县,平武县非物质文化遗产保护中心,104.5354215,32.41468198,104.526479,32.41078397
995,棕扇舞,传统舞蹈,新增项目,云南省元江哈尼族彝族傣族自治县,元江县文化馆,102.0109373,23.60284907,102.0030757,23.59922345
996,鄂温克族萨满舞,传统舞蹈,新增项目,内蒙古自治区根河市,根河市文化馆,121.535365,50.78544465,121.5219781,50.7781714
997,协荣仲孜,传统舞蹈,新增项目,西藏自治区曲水县,曲水县文化和旅游局（曲水县文物局）,90.74952389,29.35745321,90.74171642,29.35437315
998,普兰果尔孜,传统舞蹈,新增项目,西藏自治区阿里地区,阿里地区群众艺术馆,80.11277692,32.50686602,80.10398462,32.50358179
999,陈塘夏尔巴歌舞,传统舞蹈,新增项目,西藏自治区定结县,定结县文化和旅游局,87.77237674,28.36991077,87.76333018,28.36774807
1000,巴当舞,传统舞蹈,新增项目,甘肃省岷县,岷县文化馆,104.0517919,34.44232448,104.0427515,34.43733857
1001,安昭,传统舞蹈,新增项目,青海省互助土族自治县,互助土族自治县文化馆,101.9533116,36.84347099,101.9449763,36.83782233
1002,萨玛舞,传统舞蹈,新增项目,新疆维吾尔自治区喀什市,喀什市文化馆,76.02179598,39.47540513,76.01215116,39.46932781
1003,哈萨克族卡拉角勒哈,传统舞蹈,新增项目,新疆维吾尔自治区伊犁哈萨克自治州,伊犁哈萨克自治州文化艺术研究所,81.33053775,43.92272314,81.32095136,43.91554823
1004,太子务武吵子,传统舞蹈,新增项目,北京市大兴区 ,北京市大兴区榆垡镇太子务村股份经济合作社,116.3480571,39.51633838,116.3353054,39.50940376
1005,左权小花戏,传统舞蹈,新增项目,山西省左权县 ,左权县人民文化馆,113.3854518,37.08855515,113.3722014,37.08174979
1006,博舞,传统舞蹈,新增项目,吉林省前郭尔罗斯蒙古族自治县 ,前郭尔罗斯蒙古族自治县草原文化馆,124.1023902,44.60839296,124.089443,44.59999248
1007,洪泽湖渔鼓,传统舞蹈,新增项目,江苏省洪泽县 ,淮安市洪泽区文化馆,118.8795836,33.29962468,118.8678457,33.29567007
1008,洪泽湖渔鼓,传统舞蹈,新增项目,江苏省泗洪县 ,泗洪县文化馆,118.2276746,33.44295285,118.2157534,33.438315
1009,龙岩采茶灯,传统舞蹈,新增项目,福建省龙岩市新罗区 ,龙岩市新罗区龙岩采茶灯研究会,117.0435429,25.10407763,117.0320546,25.1009026
1010,宜黄禾杠舞,传统舞蹈,新增项目,江西省宜黄县 ,宜黄县文化馆,116.2434482,27.56130733,116.2320734,27.55876779
1011,耍老虎,传统舞蹈,新增项目,河南省焦作市 ,焦作市文化馆（焦作市非物质文化遗产保护中心）,113.251319,35.25123875,113.2384417,35.2458181
1012,棕包脑,传统舞蹈,新增项目,湖南省洞口县 ,洞口县非物质文化遗产保护中心,110.5825791,27.06597544,110.571418,27.06387008
1013,瑶族金锣舞,传统舞蹈,新增项目,广西壮族自治区田东县 ,田东县文化馆,107.126591,23.605142,107.1159596,23.60177328
1014,玩牛,传统舞蹈,新增项目,重庆市石柱土家族自治县 ,石柱土家族自治县文化生态保护管理中心,108.1204142,30.0061087,108.1094224,30.00225125
1015,古蔺花灯,传统舞蹈,新增项目,四川省古蔺县 ,古蔺县文化馆,105.822686,28.04528998,105.8127287,28.04268978
1016,登嘎甘（熊猫舞）,传统舞蹈,新增项目,四川省九寨沟县 ,九寨沟县文化馆,104.2495467,33.25759151,104.2405066,33.25357482
1017,阿妹戚托,传统舞蹈,新增项目,贵州省晴隆县 ,晴隆县文化馆,105.2314928,25.84425793,105.2219527,25.84114388
1018,布依族转场舞,传统舞蹈,新增项目,贵州省册亨县 ,册亨县文化馆,105.8231219,24.99154022,105.813283,24.98842722
1019,耳子歌,传统舞蹈,新增项目,云南省大理白族自治州 ,云龙县文化馆,117.2720602,34.25374591,117.2598422,34.2489529
1020,铓鼓舞,传统舞蹈,新增项目,云南省建水县 ,建水县非物质文化遗产保护中心,102.8334396,23.64093856,102.8256103,23.63747396
1021,水鼓舞,传统舞蹈,新增项目,云南省瑞丽市 ,瑞丽市文化馆,97.85950312,24.01838627,97.85274617,24.01563834
1022,怒族达比亚舞,传统舞蹈,新增项目,云南省福贡县 ,福贡县文化馆,98.87564942,26.90805521,98.86879852,26.9055251
1023,锅哇（玉树武士舞）,传统舞蹈,新增项目,青海省玉树藏族自治州 ,玉树州民间文化艺术协会,97.01318076,33.01097959,97.00616813,33.00733978
1024,纳孜库姆,传统舞蹈,新增项目,新疆维吾尔自治区吐鲁番市,吐鲁番市高昌区文化馆,89.19245888,42.94854869,89.18314964,42.94094328
1025,六郎庄五虎棍,传统舞蹈,新增项目,北京市海淀区,北京万柳置业集团有限公司,116.345061,39.9983151,116.3322542,39.99132202
1026,翼城浑身板,传统舞蹈,新增项目,山西省临汾市翼城县,翼城县人民文化馆,111.7253755,35.74442908,111.7127246,35.73827877
1027,泰兴花鼓,传统舞蹈,新增项目,江苏省泰州市泰兴市,泰兴市文化馆,120.0275841,32.17364427,120.0162176,32.16945643
1028,佾舞,传统舞蹈,新增项目,福建省福州市福清市,福清市立达孔学会,119.3839611,25.74581755,119.3725815,25.74242914
1029,阴阳板,传统舞蹈,新增项目,山东省济宁市邹城市,邹城市文化旅游公共服务中心（邹城市图书馆、邹城市文化馆）,117.0123946,35.41305677,117.0002578,35.40696674
1030,海南苗族盘皇舞,传统舞蹈,新增项目,海南省五指山市,五指山市文化馆,,,,
1031,多耶,传统舞蹈,新增项目,广西壮族自治区柳州市三江侗族自治县,三江侗族自治县文化馆（三江侗族自治县非物质文化遗产保护与发展中心）,109.6139511,25.78723434,109.6030567,25.78472527
1032,壮族打扁担,传统舞蹈,新增项目,广西壮族自治区河池市都安瑶族自治县,都安瑶族自治县文化馆,108.1098219,23.94800955,108.0991611,23.94434703
1033,苗族古瓢舞,传统舞蹈,新增项目,贵州省黔东南苗族侗族自治州,黔东南州非物质文化遗产保护中心,107.9917372,26.58923912,107.9811538,26.58653658
1034,傣族白象、马鹿舞,传统舞蹈,新增项目,云南省,云南省非物质文化遗产保护中心,102.6006851,24.67214939,102.5930507,24.6690249
1035,陇西云阳板,传统舞蹈,新增项目,甘肃省定西市陇西县,甘肃省陇西县文化馆,104.6419336,35.01066074,104.632891,35.00542081
1036,黄羊钱鞭,传统舞蹈,新增项目,宁夏回族自治区中卫市中宁县,中宁县文化馆,105.6811801,37.5109774,105.6705725,37.50477913
1037,俄罗斯族踢踏舞,传统舞蹈,新增项目,新疆维吾尔自治区塔城地区塔城市,塔城市文化馆,82.99267647,46.75462073,82.98285961,46.74813271
1038,昆曲,传统戏剧,新增项目,北京市,北方昆曲剧院,116.3953826,39.84902865,116.3827478,39.84133924
1039,昆曲,传统戏剧,新增项目,上海市,上海昆剧团,121.4709585,31.21536849,121.4599261,31.21118999
1040,昆曲,传统戏剧,新增项目,江苏省,江苏省演艺集团有限公司，江苏省苏州昆剧院,120.741194,31.30829336,120.7304152,31.30404121
1041,昆曲,传统戏剧,新增项目,浙江省,永嘉昆剧团（浙江永嘉昆曲传习所）,120.6990475,28.15647024,120.6885113,28.15373614
1042,昆曲,传统戏剧,新增项目,湖南省,湖南省昆剧团,113.0269142,25.80072528,113.0149301,25.7975069
1043,昆曲,传统戏剧,新增项目,中国艺术研究院,中国艺术研究院,116.4280319,39.99072557,116.4153233,39.98317041
1044,梨园戏,传统戏剧,新增项目,福建省泉州市,福建省梨园戏传承中心（福建省梨园戏实验剧团）,118.5863888,24.91599493,118.5754816,24.91281268
1045,莆仙戏,传统戏剧,新增项目,福建省莆田市,莆田市艺术研究所,119.014521,25.45986546,119.0032648,25.4566808
1046,潮剧,传统戏剧,新增项目,广东省潮州市,潮州市潮剧团,116.6534486,23.67643143,116.6425871,23.67281543
1047,潮剧,传统戏剧,新增项目,广东省汕头市,汕头市潮剧潮乐传承中心（广东潮剧院）,116.6896432,23.38264035,116.678645,23.37951666
1048,潮剧,传统戏剧,扩展项目,广东省揭阳市,揭阳市潮剧传承保护中心,116.3785122,23.55574049,116.3672917,23.55209811
1049,潮剧,传统戏剧,扩展项目,福建省云霄县,云霄县潮剧传承保护中心,117.3464483,23.96407283,117.3349942,23.96044291
1050,弋阳腔,传统戏剧,新增项目,江西省弋阳县,弋阳腔艺术保护中心,115.2677619,36.98583175,115.2551696,36.97972558
1051,青阳腔,传统戏剧,新增项目,安徽省青阳县,青阳县文化馆,117.8638316,30.64322175,117.85217,30.6395391
1052,青阳腔,传统戏剧,新增项目,江西省湖口县,湖口县非物质文化遗产保护研究会,116.2584713,29.73713151,116.2469999,29.73363634
1053,高腔（西安高腔）,传统戏剧,新增项目,浙江省衢州市,衢州市西安高腔传习所,125.1553733,42.93330842,125.1426066,42.92447691
1054,高腔（松阳高腔）,传统戏剧,新增项目,浙江省松阳县,松阳县文化馆,119.4849247,28.45376084,119.4733991,28.45114092
1055,高腔（岳西高腔）,传统戏剧,新增项目,安徽省岳西县,岳西高腔传承中心,116.3680022,30.85353409,116.356205,30.84983726
1056,高腔（辰河高腔）,传统戏剧,新增项目,湖南省辰溪县,辰溪县高腔艺术保护传承中心,110.1904866,28.01260531,110.1792007,28.00979399
1057,高腔（辰河高腔）,传统戏剧,新增项目,湖南省泸溪县,泸溪县辰河高腔传习所,110.2183406,28.22117383,110.2069838,28.21883061
1058,高腔（常德高腔）,传统戏剧,新增项目,湖南省常德市,常德市汉剧高腔保护中心,111.7072129,29.03600247,111.6951551,29.03284922
1059,新昌调腔,传统戏剧,新增项目,浙江省新昌县,新昌县调腔保护传承发展中心,120.9105697,29.50554108,120.8999833,29.50262779
1060,宁海平调,传统戏剧,新增项目,浙江省宁海县,宁海县平调艺术传承中心,121.4435514,29.30716466,121.4326637,29.30329016
1061,永安大腔戏,传统戏剧,新增项目,福建省永安市,永安市青水畲族乡社会事务综合服务中心（加挂“永安市青水畲族乡退役军人服务站”牌子）,117.6311308,25.8839325,117.6198151,25.88103277
1062,四平戏,传统戏剧,新增项目,福建省屏南县,屏南龙潭四平戏剧团,118.9538216,27.10546345,118.9426809,27.10284798
1063,四平戏,传统戏剧,新增项目,福建省政和县,政和县文化馆,118.8685912,27.37120061,118.8573398,27.3689347
1064,川剧,传统戏剧,新增项目,重庆市,重庆市川剧院,106.26125,29.29135502,106.250913,29.28851858
